{
"type": "FeatureCollection",
"name": "estaciones",
"crs": { "type": "name", "properties": { "name": "urn:ogc:def:crs:OGC:1.3:CRS84" } },
"features": [
{ "type": "Feature", "properties": { "id": 1.0, "nombre": "La Rinconada", "linea": "Tranvía del Norte", "lugar": "La Rinconada", "poblacion": 33101.0, "renta": 24625.3, "gasto": 28863.28, "empleos": 46.0, "indice_servicios": 0.099, "turistas": 2019.0, "sevilla": "No" }, "geometry": { "type": "Point", "coordinates": [ -5.978798561281967, 37.479372607177567, 0.0 ] } },
{ "type": "Feature", "properties": { "id": 2.0, "nombre": "Ciudad Expo", "linea": "Linea 1 de Metro", "lugar": "Mairena del Aljarafe", "poblacion": 39305.0, "renta": 34878.2, "gasto": 28734.58, "empleos": 47.0, "indice_servicios": 0.085, "turistas": 11654.0, "sevilla": "No" }, "geometry": { "type": "Point", "coordinates": [ -6.051691545158789, 37.349262165071003, 0.0 ] } },
{ "type": "Feature", "properties": { "id": 3.0, "nombre": "Cavaleri", "linea": "Linea 1 de Metro", "lugar": "Mairena del Aljarafe", "poblacion": 39305.0, "renta": 34878.2, "gasto": 28734.58, "empleos": 47.0, "indice_servicios": 0.085, "turistas": 11654.0, "sevilla": "No" }, "geometry": { "type": "Point", "coordinates": [ -6.046780179309875, 37.353034765293955, 0.0 ] } },
{ "type": "Feature", "properties": { "id": 4.0, "nombre": "San Juan Alto", "linea": "Linea 1 de Metro", "lugar": "San Juan de Aznalfarache", "poblacion": 18273.0, "renta": 22324.8, "gasto": 28031.15, "empleos": 47.0, "indice_servicios": 0.112, "turistas": 3687.0, "sevilla": "No" }, "geometry": { "type": "Point", "coordinates": [ -6.038572998679628, 37.361696161000701, 0.0 ] } },
{ "type": "Feature", "properties": { "id": 5.0, "nombre": "San Juan Bajo", "linea": "Linea 1 de Metro", "lugar": "San Juan de Aznalfarache", "poblacion": 18273.0, "renta": 22324.8, "gasto": 28031.15, "empleos": 47.0, "indice_servicios": 0.112, "turistas": 3687.0, "sevilla": "No" }, "geometry": { "type": "Point", "coordinates": [ -6.025145884412346, 37.367019203329086, 0.0 ] } },
{ "type": "Feature", "properties": { "id": 7.0, "nombre": "Parque de los Príncipes", "linea": "Linea 1 de Metro", "lugar": "Triana", "poblacion": 17897.0, "renta": 35332.4, "gasto": 29306.34, "empleos": 181.0, "indice_servicios": 0.28, "turistas": 634732.0, "sevilla": "Si" }, "geometry": { "type": "Point", "coordinates": [ -6.004755114547027, 37.376490416679218, 0.0 ] } },
{ "type": "Feature", "properties": { "id": 8.0, "nombre": "Plaza de Cuba", "linea": "Linea 1 de Metro", "lugar": "Triana", "poblacion": 17897.0, "renta": 35332.4, "gasto": 29306.34, "empleos": 181.0, "indice_servicios": 0.28, "turistas": 634732.0, "sevilla": "Si" }, "geometry": { "type": "Point", "coordinates": [ -5.999372410111514, 37.379251537880648, 0.0 ] } },
{ "type": "Feature", "properties": { "id": 9.0, "nombre": "Puerta de Jerez", "linea": "Linea 1 de Metro", "lugar": "Casco Antiguo", "poblacion": 18048.0, "renta": 40161.4, "gasto": 29246.05, "empleos": 369.0, "indice_servicios": 0.457, "turistas": 1688084.0, "sevilla": "Si" }, "geometry": { "type": "Point", "coordinates": [ -5.994358713986082, 37.381783953446075, 0.0 ] } },
{ "type": "Feature", "properties": { "id": 10.0, "nombre": "Prado de San Sebastián", "linea": "Linea 1 de Metro", "lugar": "Sevilla Sur", "poblacion": 18177.0, "renta": 54403.3, "gasto": 29598.84, "empleos": 138.0, "indice_servicios": 0.162, "turistas": 72548.0, "sevilla": "Si" }, "geometry": { "type": "Point", "coordinates": [ -5.987195459541663, 37.380773677178645, 0.0 ] } },
{ "type": "Feature", "properties": { "id": 11.0, "nombre": "San Bernardo", "linea": "Linea 1 de Metro", "lugar": "Sevilla Sur", "poblacion": 18177.0, "renta": 54403.3, "gasto": 29598.84, "empleos": 138.0, "indice_servicios": 0.162, "turistas": 72548.0, "sevilla": "Si" }, "geometry": { "type": "Point", "coordinates": [ -5.979105990487009, 37.378212417499171, 0.0 ] } },
{ "type": "Feature", "properties": { "id": 12.0, "nombre": "Nervión", "linea": "Linea 2 de Metro", "lugar": "Nervión", "poblacion": 18544.0, "renta": 38529.2, "gasto": 30025.86, "empleos": 200.0, "indice_servicios": 0.215, "turistas": 202008.0, "sevilla": "Si" }, "geometry": { "type": "Point", "coordinates": [ -5.973985255161289, 37.382984033287464, 0.0 ] } },
{ "type": "Feature", "properties": { "id": 13.0, "nombre": "Gran Plaza", "linea": "Linea 2 de Metro", "lugar": "Nervión", "poblacion": 18544.0, "renta": 38529.2, "gasto": 30025.86, "empleos": 200.0, "indice_servicios": 0.215, "turistas": 202008.0, "sevilla": "Si" }, "geometry": { "type": "Point", "coordinates": [ -5.966744312675167, 37.381657162544599, 0.0 ] } },
{ "type": "Feature", "properties": { "id": 14.0, "nombre": "Clemente Hidalgo", "linea": "Linea 2 de Metro", "lugar": "Nervión", "poblacion": 18544.0, "renta": 38529.2, "gasto": 30025.86, "empleos": 200.0, "indice_servicios": 0.215, "turistas": 202008.0, "sevilla": "Si" }, "geometry": { "type": "Point", "coordinates": [ -5.959937181984155, 37.381045287526206, 0.0 ] } },
{ "type": "Feature", "properties": { "id": 15.0, "nombre": "1 de Mayo", "linea": "Linea 2 de Metro", "lugar": "Cerro Amate", "poblacion": 16087.0, "renta": 14601.4, "gasto": 28472.75, "empleos": 11.0, "indice_servicios": 0.051, "turistas": 31726.0, "sevilla": "Si" }, "geometry": { "type": "Point", "coordinates": [ -5.955690792237736, 37.380736544955575, 0.0 ] } },
{ "type": "Feature", "properties": { "id": 16.0, "nombre": "Amate", "linea": "Linea 2 de Metro", "lugar": "Cerro Amate", "poblacion": 12818.0, "renta": 22328.2, "gasto": 28795.81, "empleos": 37.0, "indice_servicios": 0.137, "turistas": 33247.0, "sevilla": "Si" }, "geometry": { "type": "Point", "coordinates": [ -5.952655691719313, 37.375825400571031, 0.0 ] } },
{ "type": "Feature", "properties": { "id": 17.0, "nombre": "La Plata", "linea": "Linea 2 de Metro", "lugar": "Cerro Amate", "poblacion": 21780.0, "renta": 21554.4, "gasto": 29037.27, "empleos": 59.0, "indice_servicios": 0.151, "turistas": 115875.0, "sevilla": "Si" }, "geometry": { "type": "Point", "coordinates": [ -5.951795991239948, 37.371547937183898, 0.0 ] } },
{ "type": "Feature", "properties": { "id": 18.0, "nombre": "Cocheras", "linea": "Linea 2 de Metro", "lugar": "Cerro Amate", "poblacion": 21780.0, "renta": 21554.4, "gasto": 29037.27, "empleos": 59.0, "indice_servicios": 0.151, "turistas": 115875.0, "sevilla": "Si" }, "geometry": { "type": "Point", "coordinates": [ -5.950412396444973, 37.367770821373931, 0.0 ] } },
{ "type": "Feature", "properties": { "id": 19.0, "nombre": "Guadaira", "linea": "Linea 2 de Metro", "lugar": "Sevilla Sur", "poblacion": 13754.0, "renta": 15486.2, "gasto": 29535.7, "empleos": 5.0, "indice_servicios": 0.056, "turistas": 4124.0, "sevilla": "Si" }, "geometry": { "type": "Point", "coordinates": [ -5.946255567660075, 37.359807838111152, 0.0 ] } },
{ "type": "Feature", "properties": { "id": 20.0, "nombre": "Pablo de Olavide", "linea": "Linea 2 de Metro", "lugar": "Sevilla Sur", "poblacion": 13754.0, "renta": 15486.2, "gasto": 29535.7, "empleos": 5.0, "indice_servicios": 0.056, "turistas": 4124.0, "sevilla": "Si" }, "geometry": { "type": "Point", "coordinates": [ -5.943667986711906, 37.354003878145214, 0.0 ] } },
{ "type": "Feature", "properties": { "id": 21.0, "nombre": "Condequinto", "linea": "Linea 2 de Metro", "lugar": "Dos Hermanas", "poblacion": 37201.0, "renta": 35855.7, "gasto": 28844.18, "empleos": 61.0, "indice_servicios": 0.097, "turistas": 6017.0, "sevilla": "No" }, "geometry": { "type": "Point", "coordinates": [ -5.936286641164401, 37.346558059912702, 0.0 ] } },
{ "type": "Feature", "properties": { "id": 22.0, "nombre": "Montequinto", "linea": "Linea 2 de Metro", "lugar": "Dos Hermanas", "poblacion": 37201.0, "renta": 35855.7, "gasto": 28844.18, "empleos": 61.0, "indice_servicios": 0.097, "turistas": 6017.0, "sevilla": "No" }, "geometry": { "type": "Point", "coordinates": [ -5.934609608397706, 37.342116996946302, 0.0 ] } },
{ "type": "Feature", "properties": { "id": 23.0, "nombre": "Europa", "linea": "Linea 2 de Metro", "lugar": "Dos Hermanas", "poblacion": 37201.0, "renta": 35855.7, "gasto": 28844.18, "empleos": 61.0, "indice_servicios": 0.097, "turistas": 6017.0, "sevilla": "No" }, "geometry": { "type": "Point", "coordinates": [ -5.935187557810919, 37.337646878945506, 0.0 ] } },
{ "type": "Feature", "properties": { "id": 24.0, "nombre": "Olivar de Quintos", "linea": "Linea 2 de Metro", "lugar": "Dos Hermanas", "poblacion": 37201.0, "renta": 35855.7, "gasto": 28844.18, "empleos": 61.0, "indice_servicios": 0.097, "turistas": 6017.0, "sevilla": "No" }, "geometry": { "type": "Point", "coordinates": [ -5.938344391106587, 37.329408645808087, 0.0 ] } },
{ "type": "Feature", "properties": { "id": 25.0, "nombre": "Torre Triana", "linea": "Linea 2 de Metro", "lugar": "Triana", "poblacion": 14493.0, "renta": 31641.4, "gasto": 29829.36, "empleos": 56.0, "indice_servicios": 0.154, "turistas": 163572.0, "sevilla": "Si" }, "geometry": { "type": "Point", "coordinates": [ -6.011501759849252, 37.394620309630106, 0.0 ] } },
{ "type": "Feature", "properties": { "id": 26.0, "nombre": "Plaza de Armas", "linea": "Linea 2 de Metro", "lugar": "Casco Antiguo", "poblacion": 12994.0, "renta": 42306.2, "gasto": 29680.81, "empleos": 70.0, "indice_servicios": 0.156, "turistas": 388390.0, "sevilla": "Si" }, "geometry": { "type": "Point", "coordinates": [ -6.003753493883908, 37.393081912978666, 0.0 ] } },
{ "type": "Feature", "properties": { "id": 27.0, "nombre": "Plaza del Duque", "linea": "Linea 2 de Metro", "lugar": "Casco Antiguo", "poblacion": 18048.0, "renta": 40161.4, "gasto": 29246.05, "empleos": 369.0, "indice_servicios": 0.457, "turistas": 1688084.0, "sevilla": "Si" }, "geometry": { "type": "Point", "coordinates": [ -5.99614982782705, 37.392731577852693, 0.0 ] } },
{ "type": "Feature", "properties": { "id": 28.0, "nombre": "Cristo de Burgos", "linea": "Linea 2 de Metro", "lugar": "Casco Antiguo", "poblacion": 18048.0, "renta": 40161.4, "gasto": 29246.05, "empleos": 369.0, "indice_servicios": 0.457, "turistas": 1688084.0, "sevilla": "Si" }, "geometry": { "type": "Point", "coordinates": [ -5.989856759201922, 37.392330922152851, 0.0 ] } },
{ "type": "Feature", "properties": { "id": 29.0, "nombre": "María Auxiliadora", "linea": "Linea 2 de Metro", "lugar": "Casco Antiguo", "poblacion": 18665.0, "renta": 33137.5, "gasto": 29293.34, "empleos": 157.0, "indice_servicios": 0.395, "turistas": 501506.0, "sevilla": "Si" }, "geometry": { "type": "Point", "coordinates": [ -5.98348036320797, 37.394194412564339, 0.0 ] } },
{ "type": "Feature", "properties": { "id": 30.0, "nombre": "Santa Justa", "linea": "Linea 2 de Metro", "lugar": "San Pablo-Santa Justa", "poblacion": 18380.0, "renta": 36216.0, "gasto": 29438.25, "empleos": 101.0, "indice_servicios": 0.225, "turistas": 219833.0, "sevilla": "Si" }, "geometry": { "type": "Point", "coordinates": [ -5.976043389825354, 37.39142972571473, 0.0 ] } },
{ "type": "Feature", "properties": { "id": 31.0, "nombre": "Kansas City", "linea": "Linea 1 de Metro", "lugar": "San Pablo-Santa Justa", "poblacion": 11765.0, "renta": 29672.2, "gasto": 29444.38, "empleos": 57.0, "indice_servicios": 0.24, "turistas": 41336.0, "sevilla": "Si" }, "geometry": { "type": "Point", "coordinates": [ -5.969214506580907, 37.39452511185339, 0.0 ] } },
{ "type": "Feature", "properties": { "id": 32.0, "nombre": "San Pablo", "linea": "Linea 1 de Metro", "lugar": "San Pablo-Santa Justa", "poblacion": 16384.0, "renta": 20897.2, "gasto": 28914.54, "empleos": 28.0, "indice_servicios": 0.085, "turistas": 35662.0, "sevilla": "Si" }, "geometry": { "type": "Point", "coordinates": [ -5.964280656350966, 37.395300699959456, 0.0 ] } },
{ "type": "Feature", "properties": { "id": 33.0, "nombre": "Carretera Amarilla", "linea": "Linea 1 de Metro", "lugar": "San Pablo-Santa Justa", "poblacion": 6556.0, "renta": 59785.6, "gasto": 31070.1, "empleos": 7.0, "indice_servicios": 0.005, "turistas": 3458.0, "sevilla": "Si" }, "geometry": { "type": "Point", "coordinates": [ -5.958415485771365, 37.390984823629935, 0.0 ] } },
{ "type": "Feature", "properties": { "id": 34.0, "nombre": "Montesierra", "linea": "Linea 1 de Metro", "lugar": "San Pablo-Santa Justa", "poblacion": 6556.0, "renta": 59785.6, "gasto": 31070.1, "empleos": 7.0, "indice_servicios": 0.005, "turistas": 3458.0, "sevilla": "Si" }, "geometry": { "type": "Point", "coordinates": [ -5.950162150903219, 37.395569599827972, 0.0 ] } },
{ "type": "Feature", "properties": { "id": 35.0, "nombre": "Luis Uruñuela", "linea": "Linea 1 de Metro", "lugar": "Alcosa-Torreblanca", "poblacion": 20480.0, "renta": 41549.4, "gasto": 30113.61, "empleos": 21.0, "indice_servicios": 0.042, "turistas": 7874.0, "sevilla": "Si" }, "geometry": { "type": "Point", "coordinates": [ -5.942239074339142, 37.40185643056239, 0.0 ] } },
{ "type": "Feature", "properties": { "id": 36.0, "nombre": "Puerta Este", "linea": "Linea 1 de Metro", "lugar": "Alcosa-Torreblanca", "poblacion": 20480.0, "renta": 41549.4, "gasto": 30113.61, "empleos": 21.0, "indice_servicios": 0.042, "turistas": 7874.0, "sevilla": "Si" }, "geometry": { "type": "Point", "coordinates": [ -5.936291906821092, 37.404655836644487, 0.0 ] } },
{ "type": "Feature", "properties": { "id": 37.0, "nombre": "Palacio de Congresos", "linea": "Linea 1 de Metro", "lugar": "Alcosa-Torreblanca", "poblacion": 20480.0, "renta": 41549.4, "gasto": 30113.61, "empleos": 21.0, "indice_servicios": 0.042, "turistas": 7874.0, "sevilla": "Si" }, "geometry": { "type": "Point", "coordinates": [ -5.930624490299162, 37.405414773249355, 0.0 ] } },
{ "type": "Feature", "properties": { "id": 38.0, "nombre": "Ciencias", "linea": "Linea 1 de Metro", "lugar": "Alcosa-Torreblanca", "poblacion": 16491.0, "renta": 33030.5, "gasto": 29678.27, "empleos": 186.0, "indice_servicios": 0.26, "turistas": 50417.0, "sevilla": "Si" }, "geometry": { "type": "Point", "coordinates": [ -5.925733415088287, 37.400311140503561, 0.0 ] } },
{ "type": "Feature", "properties": { "id": 39.0, "nombre": "Adelfas", "linea": "Linea 1 de Metro", "lugar": "Alcosa-Torreblanca", "poblacion": 16491.0, "renta": 33030.5, "gasto": 29678.27, "empleos": 186.0, "indice_servicios": 0.26, "turistas": 50417.0, "sevilla": "Si" }, "geometry": { "type": "Point", "coordinates": [ -5.922858262151799, 37.3962401830766, 0.0 ] } },
{ "type": "Feature", "properties": { "id": 40.0, "nombre": "Aeronautica", "linea": "Linea 1 de Metro", "lugar": "Alcosa-Torreblanca", "poblacion": 21320.0, "renta": 29277.3, "gasto": 29917.09, "empleos": 14.0, "indice_servicios": 0.104, "turistas": 14554.0, "sevilla": "Si" }, "geometry": { "type": "Point", "coordinates": [ -5.920223189945325, 37.388644409214557, 0.0 ] } },
{ "type": "Feature", "properties": { "id": 41.0, "nombre": "Pino Montano Norte", "linea": "Linea 3 de Metro", "lugar": "Sevilla Norte", "poblacion": 11856.0, "renta": 29492.0, "gasto": 28767.88, "empleos": 28.0, "indice_servicios": 0.064, "turistas": 10277.0, "sevilla": "Si" }, "geometry": { "type": "Point", "coordinates": [ -5.966550693538816, 37.433482403823845, 0.0 ] } },
{ "type": "Feature", "properties": { "id": 42.0, "nombre": "Pino Montano", "linea": "Linea 3 de Metro", "lugar": "Sevilla Norte", "poblacion": 27975.0, "renta": 25308.6, "gasto": 30195.04, "empleos": 379.0, "indice_servicios": 0.105, "turistas": 28026.0, "sevilla": "Si" }, "geometry": { "type": "Point", "coordinates": [ -5.965796922430331, 37.424671389074277, 0.0 ] } },
{ "type": "Feature", "properties": { "id": 43.0, "nombre": "Los Mares", "linea": "Linea 3 de Metro", "lugar": "Sevilla Norte", "poblacion": 13018.0, "renta": 27173.1, "gasto": 29554.41, "empleos": 26.0, "indice_servicios": 0.085, "turistas": 12770.0, "sevilla": "Si" }, "geometry": { "type": "Point", "coordinates": [ -5.968546273725706, 37.419307701501971, 0.0 ] } },
{ "type": "Feature", "properties": { "id": 44.0, "nombre": "Los Carteros", "linea": "Linea 3 de Metro", "lugar": "Sevilla Norte", "poblacion": 27975.0, "renta": 25308.6, "gasto": 30195.04, "empleos": 379.0, "indice_servicios": 0.105, "turistas": 28026.0, "sevilla": "Si" }, "geometry": { "type": "Point", "coordinates": [ -5.974088404623668, 37.415675242986843, 0.0 ] } },
{ "type": "Feature", "properties": { "id": 45.0, "nombre": "San Lazaro", "linea": "Linea 3 de Metro", "lugar": "Macarena", "poblacion": 25997.0, "renta": 20266.0, "gasto": 28988.72, "empleos": 61.0, "indice_servicios": 0.116, "turistas": 103909.0, "sevilla": "Si" }, "geometry": { "type": "Point", "coordinates": [ -5.982264936722963, 37.413518461781429, 0.0 ] } },
{ "type": "Feature", "properties": { "id": 46.0, "nombre": "Hospital Virgen Macarena", "linea": "Linea 3 de Metro", "lugar": "Macarena", "poblacion": 11106.0, "renta": 27464.6, "gasto": 29754.66, "empleos": 14.0, "indice_servicios": 0.07, "turistas": 103987.0, "sevilla": "Si" }, "geometry": { "type": "Point", "coordinates": [ -5.985595515587637, 37.407430781142125, 0.0 ] } },
{ "type": "Feature", "properties": { "id": 47.0, "nombre": "La Macarena", "linea": "Linea 3 de Metro", "lugar": "Macarena", "poblacion": 13638.0, "renta": 31613.1, "gasto": 30482.24, "empleos": 83.0, "indice_servicios": 0.253, "turistas": 140180.0, "sevilla": "Si" }, "geometry": { "type": "Point", "coordinates": [ -5.987999559594666, 37.403115594232972, 0.0 ] } },
{ "type": "Feature", "properties": { "id": 48.0, "nombre": "Ronda de Capuchinos", "linea": "Linea 3 de Metro", "lugar": "Casco Antiguo", "poblacion": 18665.0, "renta": 33137.5, "gasto": 29293.34, "empleos": 157.0, "indice_servicios": 0.395, "turistas": 501506.0, "sevilla": "Si" }, "geometry": { "type": "Point", "coordinates": [ -5.981955375295222, 37.39889415654244, 0.0 ] } },
{ "type": "Feature", "properties": { "id": 49.0, "nombre": "Puerta de Carmona", "linea": "Linea 3 de Metro", "lugar": "Casco Antiguo", "poblacion": 18048.0, "renta": 40161.4, "gasto": 29246.05, "empleos": 369.0, "indice_servicios": 0.457, "turistas": 1688084.0, "sevilla": "Si" }, "geometry": { "type": "Point", "coordinates": [ -5.984513250441167, 37.389073311167799, 0.0 ] } },
{ "type": "Feature", "properties": { "id": 50.0, "nombre": "Jardines de Murillo", "linea": "Linea 3 de Metro", "lugar": "Casco Antiguo", "poblacion": 18048.0, "renta": 40161.4, "gasto": 29246.05, "empleos": 369.0, "indice_servicios": 0.457, "turistas": 1688084.0, "sevilla": "Si" }, "geometry": { "type": "Point", "coordinates": [ -5.986578583278413, 37.384741684547478, 0.0 ] } },
{ "type": "Feature", "properties": { "id": 51.0, "nombre": "Plaza de España", "linea": "Linea 3 de Metro", "lugar": "Sevilla Sur", "poblacion": 18177.0, "renta": 54403.3, "gasto": 29598.84, "empleos": 138.0, "indice_servicios": 0.162, "turistas": 72548.0, "sevilla": "Si" }, "geometry": { "type": "Point", "coordinates": [ -5.984093023048174, 37.377461352924428, 0.0 ] } },
{ "type": "Feature", "properties": { "id": 52.0, "nombre": "Parque de Maria Luisa", "linea": "Linea 3 de Metro", "lugar": "Sevilla Sur", "poblacion": 18177.0, "renta": 54403.3, "gasto": 29598.84, "empleos": 138.0, "indice_servicios": 0.162, "turistas": 72548.0, "sevilla": "Si" }, "geometry": { "type": "Point", "coordinates": [ -5.985452637685102, 37.372289672020528, 0.0 ] } },
{ "type": "Feature", "properties": { "id": 53.0, "nombre": "Bueno Monreal", "linea": "Linea 3 de Metro", "lugar": "Bellavista-La Palmera", "poblacion": 9032.0, "renta": 45108.6, "gasto": 28519.38, "empleos": 8.0, "indice_servicios": 0.093, "turistas": 10360.0, "sevilla": "Si" }, "geometry": { "type": "Point", "coordinates": [ -5.9853603007243, 37.368064907113663, 0.0 ] } },
{ "type": "Feature", "properties": { "id": 54.0, "nombre": "Hospital Virgen del Rocío", "linea": "Linea 3 de Metro", "lugar": "Bellavista-La Palmera", "poblacion": 9032.0, "renta": 45108.6, "gasto": 28519.38, "empleos": 8.0, "indice_servicios": 0.093, "turistas": 10360.0, "sevilla": "Si" }, "geometry": { "type": "Point", "coordinates": [ -5.981146484674389, 37.360549205912172, 0.0 ] } },
{ "type": "Feature", "properties": { "id": 55.0, "nombre": "Heliopolis", "linea": "Linea 3 de Metro", "lugar": "Bellavista-La Palmera", "poblacion": 9032.0, "renta": 45108.6, "gasto": 28519.38, "empleos": 8.0, "indice_servicios": 0.093, "turistas": 10360.0, "sevilla": "Si" }, "geometry": { "type": "Point", "coordinates": [ -5.98038386006784, 37.356490860911741, 0.0 ] } },
{ "type": "Feature", "properties": { "id": 56.0, "nombre": "Pineda", "linea": "Linea 3 de Metro", "lugar": "Bellavista-La Palmera", "poblacion": 25656.0, "renta": 34521.9, "gasto": 29315.15, "empleos": 16.0, "indice_servicios": 0.064, "turistas": 84299.0, "sevilla": "Si" }, "geometry": { "type": "Point", "coordinates": [ -5.976630079947577, 37.351269049765321, 0.0 ] } },
{ "type": "Feature", "properties": { "id": 57.0, "nombre": "Los Bermejales", "linea": "Linea 3 de Metro", "lugar": "Bellavista-La Palmera", "poblacion": 25656.0, "renta": 34521.9, "gasto": 29315.15, "empleos": 16.0, "indice_servicios": 0.064, "turistas": 84299.0, "sevilla": "Si" }, "geometry": { "type": "Point", "coordinates": [ -5.978767492147061, 37.345777779744907, 0.0 ] } },
{ "type": "Feature", "properties": { "id": 58.0, "nombre": "Cartuja", "linea": "Linea 4 de Metro", "lugar": "Triana", "poblacion": 14493.0, "renta": 31641.4, "gasto": 29829.36, "empleos": 56.0, "indice_servicios": 0.154, "turistas": 163572.0, "sevilla": "Si" }, "geometry": { "type": "Point", "coordinates": [ -6.010119580671106, 37.40724277601862, 0.0 ] } },
{ "type": "Feature", "properties": { "id": 59.0, "nombre": "Americo Vespucio", "linea": "Linea 4 de Metro", "lugar": "Triana", "poblacion": 14493.0, "renta": 31641.4, "gasto": 29829.36, "empleos": 56.0, "indice_servicios": 0.154, "turistas": 163572.0, "sevilla": "Si" }, "geometry": { "type": "Point", "coordinates": [ -6.005897363214233, 37.412647100808456, 0.0 ] } },
{ "type": "Feature", "properties": { "id": 60.0, "nombre": "Ingenieros", "linea": "Linea 4 de Metro", "lugar": "Triana", "poblacion": 14493.0, "renta": 31641.4, "gasto": 29829.36, "empleos": 56.0, "indice_servicios": 0.154, "turistas": 163572.0, "sevilla": "Si" }, "geometry": { "type": "Point", "coordinates": [ -6.001462021068744, 37.412145295042606, 0.0 ] } },
{ "type": "Feature", "properties": { "id": 61.0, "nombre": "Remo", "linea": "Linea 4 de Metro", "lugar": "Triana", "poblacion": 14493.0, "renta": 31641.4, "gasto": 29829.36, "empleos": 56.0, "indice_servicios": 0.154, "turistas": 163572.0, "sevilla": "Si" }, "geometry": { "type": "Point", "coordinates": [ -5.996358912604093, 37.409158011014732, 0.0 ] } },
{ "type": "Feature", "properties": { "id": 62.0, "nombre": "Jose Diaz", "linea": "Linea 4 de Metro", "lugar": "Macarena", "poblacion": 11106.0, "renta": 27464.6, "gasto": 29754.66, "empleos": 14.0, "indice_servicios": 0.07, "turistas": 103987.0, "sevilla": "Si" }, "geometry": { "type": "Point", "coordinates": [ -5.990586907766727, 37.408863871154935, 0.0 ] } },
{ "type": "Feature", "properties": { "id": 63.0, "nombre": "Pio XII", "linea": "Linea 4 de Metro", "lugar": "Macarena", "poblacion": 14340.0, "renta": 23015.4, "gasto": 29517.13, "empleos": 52.0, "indice_servicios": 0.164, "turistas": 66308.0, "sevilla": "Si" }, "geometry": { "type": "Point", "coordinates": [ -5.978601947149905, 37.407229304166954, 0.0 ] } },
{ "type": "Feature", "properties": { "id": 64.0, "nombre": "Llanes", "linea": "Linea 4 de Metro", "lugar": "Macarena", "poblacion": 14340.0, "renta": 23015.4, "gasto": 29517.13, "empleos": 52.0, "indice_servicios": 0.164, "turistas": 66308.0, "sevilla": "Si" }, "geometry": { "type": "Point", "coordinates": [ -5.97283811074425, 37.404165642387142, 0.0 ] } },
{ "type": "Feature", "properties": { "id": 65.0, "nombre": "Carretera de Carmona", "linea": "Linea 4 de Metro", "lugar": "Sevilla Norte", "poblacion": 11856.0, "renta": 29492.0, "gasto": 28767.88, "empleos": 28.0, "indice_servicios": 0.064, "turistas": 10277.0, "sevilla": "Si" }, "geometry": { "type": "Point", "coordinates": [ -5.96639336777105, 37.403155704275008, 0.0 ] } },
{ "type": "Feature", "properties": { "id": 66.0, "nombre": "Pedro Romero", "linea": "Linea 4 de Metro", "lugar": "San Pablo-Santa Justa", "poblacion": 16384.0, "renta": 20897.2, "gasto": 28914.54, "empleos": 28.0, "indice_servicios": 0.085, "turistas": 35662.0, "sevilla": "Si" }, "geometry": { "type": "Point", "coordinates": [ -5.96107625852361, 37.397882373768525, 0.0 ] } },
{ "type": "Feature", "properties": { "id": 67.0, "nombre": "Ramon y Cajal", "linea": "Linea 4 de Metro", "lugar": "Nervión", "poblacion": 18544.0, "renta": 38529.2, "gasto": 30025.86, "empleos": 200.0, "indice_servicios": 0.215, "turistas": 202008.0, "sevilla": "Si" }, "geometry": { "type": "Point", "coordinates": [ -5.964549572974892, 37.373578917175472, 0.0 ] } },
{ "type": "Feature", "properties": { "id": 68.0, "nombre": "Ronda del Tamarguillo", "linea": "Linea 4 de Metro", "lugar": "Sevilla Sur", "poblacion": 10578.0, "renta": 29249.0, "gasto": 29014.58, "empleos": 32.0, "indice_servicios": 0.135, "turistas": 23755.0, "sevilla": "Si" }, "geometry": { "type": "Point", "coordinates": [ -5.968474207877088, 37.370052615925715, 0.0 ] } },
{ "type": "Feature", "properties": { "id": 69.0, "nombre": "José Celestino Mutis", "linea": "Linea 4 de Metro", "lugar": "Sevilla Sur", "poblacion": 13754.0, "renta": 15486.2, "gasto": 29535.7, "empleos": 5.0, "indice_servicios": 0.056, "turistas": 4124.0, "sevilla": "Si" }, "geometry": { "type": "Point", "coordinates": [ -5.973817502818752, 37.363452086665788, 0.0 ] } },
{ "type": "Feature", "properties": { "id": 71.0, "nombre": "Reina Mercedes", "linea": "Linea 4 de Metro", "lugar": "Bellavista-La Palmera", "poblacion": 9032.0, "renta": 45108.6, "gasto": 28519.38, "empleos": 8.0, "indice_servicios": 0.093, "turistas": 10360.0, "sevilla": "Si" }, "geometry": { "type": "Point", "coordinates": [ -5.987436417377292, 37.360825717858503, 0.0 ] } },
{ "type": "Feature", "properties": { "id": 72.0, "nombre": "Delicias", "linea": "Linea 4 de Metro", "lugar": "Los Remedios", "poblacion": 21793.0, "renta": 45885.1, "gasto": 29767.67, "empleos": 317.0, "indice_servicios": 0.405, "turistas": 271822.0, "sevilla": "Si" }, "geometry": { "type": "Point", "coordinates": [ -5.99742948464583, 37.367705565631972, 0.0 ] } },
{ "type": "Feature", "properties": { "id": 73.0, "nombre": "Virgen de la Oliva", "linea": "Linea 4 de Metro", "lugar": "Los Remedios", "poblacion": 21793.0, "renta": 45885.1, "gasto": 29767.67, "empleos": 317.0, "indice_servicios": 0.405, "turistas": 271822.0, "sevilla": "Si" }, "geometry": { "type": "Point", "coordinates": [ -6.003650444801048, 37.372153652993021, 0.0 ] } },
{ "type": "Feature", "properties": { "id": 74.0, "nombre": "San Jacinto", "linea": "Linea 4 de Metro", "lugar": "Triana", "poblacion": 17897.0, "renta": 35332.4, "gasto": 29306.34, "empleos": 181.0, "indice_servicios": 0.28, "turistas": 634732.0, "sevilla": "Si" }, "geometry": { "type": "Point", "coordinates": [ -6.009156598204374, 37.38114414290829, 0.0 ] } },
{ "type": "Feature", "properties": { "id": 75.0, "nombre": "Ronda de Triana", "linea": "Linea 4 de Metro", "lugar": "Triana", "poblacion": 14493.0, "renta": 31641.4, "gasto": 29829.36, "empleos": 56.0, "indice_servicios": 0.154, "turistas": 163572.0, "sevilla": "Si" }, "geometry": { "type": "Point", "coordinates": [ -6.011255615188037, 37.385503324476126, 0.0 ] } },
{ "type": "Feature", "properties": { "id": 76.0, "nombre": "Dr.Miguel Rios", "linea": "Linea 1 de Metro", "lugar": "Alcosa-Torreblanca", "poblacion": 21320.0, "renta": 29277.3, "gasto": 29917.09, "empleos": 14.0, "indice_servicios": 0.104, "turistas": 14554.0, "sevilla": "Si" }, "geometry": { "type": "Point", "coordinates": [ -5.914255475236773, 37.385963370999143, 0.0 ] } },
{ "type": "Feature", "properties": { "id": 77.0, "nombre": "Camas", "linea": "Linea 2 de Metro", "lugar": "Camas", "poblacion": 23756.0, "renta": 24119.8, "gasto": 29585.12, "empleos": 38.0, "indice_servicios": 0.094, "turistas": 2471.0, "sevilla": "No" }, "geometry": { "type": "Point", "coordinates": [ -6.027218409511581, 37.392382900893047, 0.0 ] } },
{ "type": "Feature", "properties": { "id": 78.0, "nombre": "Bormujos-Ginés", "linea": "Linea 2 de Metro", "lugar": "Bormujos", "poblacion": 18273.0, "renta": 36722.0, "gasto": 28598.01, "empleos": 18.0, "indice_servicios": 0.062, "turistas": 1663.0, "sevilla": "No" }, "geometry": { "type": "Point", "coordinates": [ -6.071777229885151, 37.381019485172509, 0.0 ] } },
{ "type": "Feature", "properties": { "id": 79.0, "nombre": "Ciudad de la Justicia", "linea": "Linea 3 de Metro", "lugar": "Bellavista-La Palmera", "poblacion": 25656.0, "renta": 34521.9, "gasto": 29315.15, "empleos": 16.0, "indice_servicios": 0.064, "turistas": 84299.0, "sevilla": "Si" }, "geometry": { "type": "Point", "coordinates": [ -5.978582818225483, 37.340372442351814, 0.0 ] } },
{ "type": "Feature", "properties": { "id": 80.0, "nombre": "Palmas Altas", "linea": "Linea 3 de Metro", "lugar": "Bellavista-La Palmera", "poblacion": 25656.0, "renta": 34521.9, "gasto": 29315.15, "empleos": 16.0, "indice_servicios": 0.064, "turistas": 84299.0, "sevilla": "Si" }, "geometry": { "type": "Point", "coordinates": [ -5.983836602851629, 37.338800806451957, 0.0 ] } },
{ "type": "Feature", "properties": { "id": 81.0, "nombre": "Cortijo del Cuarto", "linea": "Linea 3 de Metro", "lugar": "Bellavista-La Palmera", "poblacion": 25656.0, "renta": 34521.9, "gasto": 29315.15, "empleos": 16.0, "indice_servicios": 0.064, "turistas": 84299.0, "sevilla": "Si" }, "geometry": { "type": "Point", "coordinates": [ -5.973173568308186, 37.330572029064555, 0.0 ] } },
{ "type": "Feature", "properties": { "id": 82.0, "nombre": "Ermita de la Virgen del Valme", "linea": "Linea 3 de Metro", "lugar": "Bellavista-La Palmera", "poblacion": 25656.0, "renta": 34521.9, "gasto": 29315.15, "empleos": 16.0, "indice_servicios": 0.064, "turistas": 84299.0, "sevilla": "Si" }, "geometry": { "type": "Point", "coordinates": [ -5.973976334538727, 37.324937823344627, 0.0 ] } },
{ "type": "Feature", "properties": { "id": 83.0, "nombre": "Hospital de Valme", "linea": "Linea 3 de Metro", "lugar": "Bellavista-La Palmera", "poblacion": 25656.0, "renta": 34521.9, "gasto": 29315.15, "empleos": 16.0, "indice_servicios": 0.064, "turistas": 84299.0, "sevilla": "Si" }, "geometry": { "type": "Point", "coordinates": [ -5.97005107149127, 37.317824784567271, 0.0 ] } },
{ "type": "Feature", "properties": { "id": 84.0, "nombre": "Airesur", "linea": "Linea 2 de Metro", "lugar": "Castilleja de la Cuesta", "poblacion": 15031.0, "renta": 27898.6, "gasto": 28761.03, "empleos": 36.0, "indice_servicios": 0.102, "turistas": 2608.0, "sevilla": "No" }, "geometry": { "type": "Point", "coordinates": [ -6.045573645920965, 37.381972703498292, 0.0 ] } },
{ "type": "Feature", "properties": { "id": 85.0, "nombre": "Nueva Sevilla", "linea": "Linea 2 de Metro", "lugar": "Castilleja de la Cuesta", "poblacion": 15031.0, "renta": 27898.6, "gasto": 28761.03, "empleos": 36.0, "indice_servicios": 0.102, "turistas": 2608.0, "sevilla": "No" }, "geometry": { "type": "Point", "coordinates": [ -6.061298097989763, 37.383538152026041, 0.0 ] } },
{ "type": "Feature", "properties": { "id": 86.0, "nombre": "San Juan Bajo", "linea": "Tranvía del Aljarafe 2", "lugar": "San Juan de Aznalfarache", "poblacion": 18273.0, "renta": 22324.8, "gasto": 28031.15, "empleos": 47.0, "indice_servicios": 0.112, "turistas": 3687.0, "sevilla": "No" }, "geometry": { "type": "Point", "coordinates": [ -6.025145884661304, 37.367019203458796, 0.0 ] } },
{ "type": "Feature", "properties": { "id": 87.0, "nombre": "Parque de los Príncipes", "linea": "Linea 4 de Metro", "lugar": "Triana", "poblacion": 17897.0, "renta": 35332.4, "gasto": 29306.34, "empleos": 181.0, "indice_servicios": 0.28, "turistas": 634732.0, "sevilla": "Si" }, "geometry": { "type": "Point", "coordinates": [ -6.004755114538069, 37.376490416681996, 0.0 ] } },
{ "type": "Feature", "properties": { "id": 88.0, "nombre": "Prado de San Sebastián", "linea": "Linea 3 de Metro", "lugar": "Sevilla Sur", "poblacion": 18177.0, "renta": 54403.3, "gasto": 29598.84, "empleos": 138.0, "indice_servicios": 0.162, "turistas": 72548.0, "sevilla": "Si" }, "geometry": { "type": "Point", "coordinates": [ -5.987195459599171, 37.38077367722434, 0.0 ] } },
{ "type": "Feature", "properties": { "id": 89.0, "nombre": "Nervión", "linea": "Linea 1 de Metro", "lugar": "Nervión", "poblacion": 18544.0, "renta": 38529.2, "gasto": 30025.86, "empleos": 200.0, "indice_servicios": 0.215, "turistas": 202008.0, "sevilla": "Si" }, "geometry": { "type": "Point", "coordinates": [ -5.97398525493729, 37.382984033287464, 0.0 ] } },
{ "type": "Feature", "properties": { "id": 90.0, "nombre": "Clemente Hidalgo", "linea": "Linea 4 de Metro", "lugar": "Nervión", "poblacion": 18544.0, "renta": 38529.2, "gasto": 30025.86, "empleos": 200.0, "indice_servicios": 0.215, "turistas": 202008.0, "sevilla": "Si" }, "geometry": { "type": "Point", "coordinates": [ -5.959937181984155, 37.381045287708993, 0.0 ] } },
{ "type": "Feature", "properties": { "id": 91.0, "nombre": "Torre Triana", "linea": "Linea 4 de Metro", "lugar": "Triana", "poblacion": 14493.0, "renta": 31641.4, "gasto": 29829.36, "empleos": 56.0, "indice_servicios": 0.154, "turistas": 163572.0, "sevilla": "Si" }, "geometry": { "type": "Point", "coordinates": [ -6.011505125557264, 37.394628331508422, 0.0 ] } },
{ "type": "Feature", "properties": { "id": 92.0, "nombre": "María Auxiliadora", "linea": "Linea 3 de Metro", "lugar": "Casco Antiguo", "poblacion": 18665.0, "renta": 33137.5, "gasto": 29293.34, "empleos": 157.0, "indice_servicios": 0.395, "turistas": 501506.0, "sevilla": "Si" }, "geometry": { "type": "Point", "coordinates": [ -5.98348036315047, 37.394194412610055, 0.0 ] } },
{ "type": "Feature", "properties": { "id": 93.0, "nombre": "Santa Justa", "linea": "Linea 1 de Metro", "lugar": "San Pablo-Santa Justa", "poblacion": 18380.0, "renta": 36216.0, "gasto": 29438.25, "empleos": 101.0, "indice_servicios": 0.225, "turistas": 219833.0, "sevilla": "Si" }, "geometry": { "type": "Point", "coordinates": [ -5.976043389825358, 37.391429725714744, 0.0 ] } },
{ "type": "Feature", "properties": { "id": 94.0, "nombre": "Carretera Amarilla", "linea": "Linea 4 de Metro", "lugar": "San Pablo-Santa Justa", "poblacion": 6556.0, "renta": 59785.6, "gasto": 31070.1, "empleos": 7.0, "indice_servicios": 0.005, "turistas": 3458.0, "sevilla": "Si" }, "geometry": { "type": "Point", "coordinates": [ -5.958415485771365, 37.390984823629935, 0.0 ] } },
{ "type": "Feature", "properties": { "id": 95.0, "nombre": "Hospital Virgen Macarena", "linea": "Linea 4 de Metro", "lugar": "Macarena", "poblacion": 11106.0, "renta": 27464.6, "gasto": 29754.66, "empleos": 14.0, "indice_servicios": 0.07, "turistas": 103987.0, "sevilla": "Si" }, "geometry": { "type": "Point", "coordinates": [ -5.985595522948683, 37.407430781142125, 0.0 ] } },
{ "type": "Feature", "properties": { "id": 96.0, "nombre": "Hospital Virgen del Rocío", "linea": "Linea 4 de Metro", "lugar": "Bellavista-La Palmera", "poblacion": 9032.0, "renta": 45108.6, "gasto": 28519.38, "empleos": 8.0, "indice_servicios": 0.093, "turistas": 10360.0, "sevilla": "Si" }, "geometry": { "type": "Point", "coordinates": [ -5.981146483754256, 37.360549205912172, 0.0 ] } },
{ "type": "Feature", "properties": { "id": 97.0, "nombre": "Plaza Nueva", "linea": "Metrocentro", "lugar": "Casco Antiguo", "poblacion": 18048.0, "renta": 40161.4, "gasto": 29246.05, "empleos": 369.0, "indice_servicios": 0.457, "turistas": 1688084.0, "sevilla": "Si" }, "geometry": { "type": "Point", "coordinates": [ -5.995255880319906, 37.388354098794849, 0.0 ] } },
{ "type": "Feature", "properties": { "id": 99.0, "nombre": "Puerta Jerez", "linea": "Metrocentro", "lugar": "Casco Antiguo", "poblacion": 18048.0, "renta": 40161.4, "gasto": 29246.05, "empleos": 369.0, "indice_servicios": 0.457, "turistas": 1688084.0, "sevilla": "Si" }, "geometry": { "type": "Point", "coordinates": [ -5.992401679703798, 37.382171809743525, 0.0 ] } },
{ "type": "Feature", "properties": { "id": 100.0, "nombre": "Prado San Sebastián", "linea": "Metrocentro", "lugar": "Sevilla Sur", "poblacion": 18177.0, "renta": 54403.3, "gasto": 29598.84, "empleos": 138.0, "indice_servicios": 0.162, "turistas": 72548.0, "sevilla": "Si" }, "geometry": { "type": "Point", "coordinates": [ -5.986999672258892, 37.380847987529755, 0.0 ] } },
{ "type": "Feature", "properties": { "id": 101.0, "nombre": "San Bernardo", "linea": "Metrocentro", "lugar": "Nervión", "poblacion": 26212.0, "renta": 45590.7, "gasto": 30173.21, "empleos": 294.0, "indice_servicios": 0.423, "turistas": 350464.0, "sevilla": "Si" }, "geometry": { "type": "Point", "coordinates": [ -5.979181225747744, 37.378627268446671, 0.0 ] } },
{ "type": "Feature", "properties": { "id": 102.0, "nombre": "San Francisco Javier", "linea": "Metrocentro", "lugar": "Nervión", "poblacion": 26212.0, "renta": 45590.7, "gasto": 30173.21, "empleos": 294.0, "indice_servicios": 0.423, "turistas": 350464.0, "sevilla": "Si" }, "geometry": { "type": "Point", "coordinates": [ -5.97431464671695, 37.379575561531261, 0.0 ] } },
{ "type": "Feature", "properties": { "id": 103.0, "nombre": "Eduardo Dato", "linea": "Metrocentro", "lugar": "Nervión", "poblacion": 18544.0, "renta": 38529.2, "gasto": 30025.86, "empleos": 200.0, "indice_servicios": 0.215, "turistas": 202008.0, "sevilla": "Si" }, "geometry": { "type": "Point", "coordinates": [ -5.973445454407484, 37.3822525350839, 0.0 ] } },
{ "type": "Feature", "properties": { "id": 104.0, "nombre": "Luis de Morales", "linea": "Metrocentro", "lugar": "San Pablo-Santa Justa", "poblacion": 18380.0, "renta": 36216.0, "gasto": 29438.25, "empleos": 101.0, "indice_servicios": 0.225, "turistas": 219833.0, "sevilla": "Si" }, "geometry": { "type": "Point", "coordinates": [ -5.972415697061663, 37.386342441104368, 0.0 ] } },
{ "type": "Feature", "properties": { "id": 105.0, "nombre": "Sevilla Santa Justa", "linea": "Metrocentro", "lugar": "San Pablo-Santa Justa", "poblacion": 18380.0, "renta": 36216.0, "gasto": 29438.25, "empleos": 101.0, "indice_servicios": 0.225, "turistas": 219833.0, "sevilla": "Si" }, "geometry": { "type": "Point", "coordinates": [ -5.976600893364797, 37.390896730683792, 0.0 ] } },
{ "type": "Feature", "properties": { "id": 106.0, "nombre": "Puerta Osario", "linea": "Metrocentro", "lugar": "Casco Antiguo", "poblacion": 18665.0, "renta": 33137.5, "gasto": 29293.34, "empleos": 157.0, "indice_servicios": 0.395, "turistas": 501506.0, "sevilla": "Si" }, "geometry": { "type": "Point", "coordinates": [ -5.983703069296316, 37.394118504532329, 0.0 ] } },
{ "type": "Feature", "properties": { "id": 107.0, "nombre": "Escuelas Pias", "linea": "Metrocentro", "lugar": "Casco Antiguo", "poblacion": 18665.0, "renta": 33137.5, "gasto": 29293.34, "empleos": 157.0, "indice_servicios": 0.395, "turistas": 501506.0, "sevilla": "Si" }, "geometry": { "type": "Point", "coordinates": [ -5.987797226868863, 37.392994153902109, 0.0 ] } },
{ "type": "Feature", "properties": { "id": 108.0, "nombre": "Imagen", "linea": "Metrocentro", "lugar": "Casco Antiguo", "poblacion": 18048.0, "renta": 40161.4, "gasto": 29246.05, "empleos": 369.0, "indice_servicios": 0.457, "turistas": 1688084.0, "sevilla": "Si" }, "geometry": { "type": "Point", "coordinates": [ -5.991441879482495, 37.392705225454762, 0.0 ] } },
{ "type": "Feature", "properties": { "id": 109.0, "nombre": "Plaza del Duque", "linea": "Metrocentro", "lugar": "Casco Antiguo", "poblacion": 18048.0, "renta": 40161.4, "gasto": 29246.05, "empleos": 369.0, "indice_servicios": 0.457, "turistas": 1688084.0, "sevilla": "Si" }, "geometry": { "type": "Point", "coordinates": [ -5.995951469720957, 37.393498846137618, 0.0 ] } },
{ "type": "Feature", "properties": { "id": 111.0, "nombre": "Pablo de Olavide", "linea": "Tranvía de Alcalá", "lugar": "Sevilla Sur", "poblacion": 13754.0, "renta": 15486.2, "gasto": 29535.7, "empleos": 5.0, "indice_servicios": 0.056, "turistas": 4124.0, "sevilla": "Si" }, "geometry": { "type": "Point", "coordinates": [ -5.943667986711906, 37.354003877069673, 0.0 ] } },
{ "type": "Feature", "properties": { "id": 112.0, "nombre": "El Canal", "linea": "Tranvía de Alcalá", "lugar": "Dos Hermanas", "poblacion": 37201.0, "renta": 35855.7, "gasto": 28844.18, "empleos": 61.0, "indice_servicios": 0.097, "turistas": 6017.0, "sevilla": "No" }, "geometry": { "type": "Point", "coordinates": [ -5.932010412588659, 37.354661224086172, 0.0 ] } },
{ "type": "Feature", "properties": { "id": 113.0, "nombre": "Parque Tecnológico 1", "linea": "Tranvía de Alcalá", "lugar": "Alcalá de Guadaíra", "poblacion": 41627.0, "renta": 27336.5, "gasto": 28371.59, "empleos": 61.0, "indice_servicios": 0.076, "turistas": 2132.0, "sevilla": "No" }, "geometry": { "type": "Point", "coordinates": [ -5.919118336271317, 37.362987337844658, 0.0 ] } },
{ "type": "Feature", "properties": { "id": 114.0, "nombre": "Parque Tecnológico 2", "linea": "Tranvía de Alcalá", "lugar": "Alcalá de Guadaíra", "poblacion": 41627.0, "renta": 27336.5, "gasto": 28371.59, "empleos": 61.0, "indice_servicios": 0.076, "turistas": 2132.0, "sevilla": "No" }, "geometry": { "type": "Point", "coordinates": [ -5.905186761758678, 37.365141080114739, 0.0 ] } },
{ "type": "Feature", "properties": { "id": 115.0, "nombre": "La Red", "linea": "Tranvía de Alcalá", "lugar": "Alcalá de Guadaíra", "poblacion": 41627.0, "renta": 27336.5, "gasto": 28371.59, "empleos": 61.0, "indice_servicios": 0.076, "turistas": 2132.0, "sevilla": "No" }, "geometry": { "type": "Point", "coordinates": [ -5.886498700164234, 37.357091844914024, 0.0 ] } },
{ "type": "Feature", "properties": { "id": 116.0, "nombre": "La Liebre", "linea": "Tranvía de Alcalá", "lugar": "Alcalá de Guadaíra", "poblacion": 41627.0, "renta": 27336.5, "gasto": 28371.59, "empleos": 61.0, "indice_servicios": 0.076, "turistas": 2132.0, "sevilla": "No" }, "geometry": { "type": "Point", "coordinates": [ -5.878433349303412, 37.353630366218077, 0.0 ] } },
{ "type": "Feature", "properties": { "id": 117.0, "nombre": "Cabeza Hermosa", "linea": "Tranvía de Alcalá", "lugar": "Alcalá de Guadaíra", "poblacion": 41627.0, "renta": 27336.5, "gasto": 28371.59, "empleos": 61.0, "indice_servicios": 0.076, "turistas": 2132.0, "sevilla": "No" }, "geometry": { "type": "Point", "coordinates": [ -5.859699481630014, 37.349033014785157, 0.0 ] } },
{ "type": "Feature", "properties": { "id": 118.0, "nombre": "Nuevo Zacatín", "linea": "Tranvía de Alcalá", "lugar": "Alcalá de Guadaíra", "poblacion": 41627.0, "renta": 27336.5, "gasto": 28371.59, "empleos": 61.0, "indice_servicios": 0.076, "turistas": 2132.0, "sevilla": "No" }, "geometry": { "type": "Point", "coordinates": [ -5.852974502644006, 37.347616077523156, 0.0 ] } },
{ "type": "Feature", "properties": { "id": 119.0, "nombre": "Avenida de la Constitución", "linea": "Tranvía de Alcalá", "lugar": "Alcalá de Guadaíra", "poblacion": 41627.0, "renta": 27336.5, "gasto": 28371.59, "empleos": 61.0, "indice_servicios": 0.076, "turistas": 2132.0, "sevilla": "No" }, "geometry": { "type": "Point", "coordinates": [ -5.843877146975862, 37.34793124613757, 0.0 ] } },
{ "type": "Feature", "properties": { "id": 120.0, "nombre": "La Paz", "linea": "Tranvía de Alcalá", "lugar": "Alcalá de Guadaíra", "poblacion": 41627.0, "renta": 27336.5, "gasto": 28371.59, "empleos": 61.0, "indice_servicios": 0.076, "turistas": 2132.0, "sevilla": "No" }, "geometry": { "type": "Point", "coordinates": [ -5.837888786437388, 37.349111348985936, 0.0 ] } },
{ "type": "Feature", "properties": { "id": 121.0, "nombre": "Pablo VI", "linea": "Tranvía de Alcalá", "lugar": "Alcalá de Guadaíra", "poblacion": 11961.0, "renta": 24636.5, "gasto": 28620.71, "empleos": 30.0, "indice_servicios": 0.118, "turistas": 1615.0, "sevilla": "No" }, "geometry": { "type": "Point", "coordinates": [ -5.831901850302184, 37.345858567895554, 0.0 ] } },
{ "type": "Feature", "properties": { "id": 122.0, "nombre": "Montecarmelo", "linea": "Tranvía de Alcalá", "lugar": "Alcalá de Guadaíra", "poblacion": 11961.0, "renta": 24636.5, "gasto": 28620.71, "empleos": 30.0, "indice_servicios": 0.118, "turistas": 1615.0, "sevilla": "No" }, "geometry": { "type": "Point", "coordinates": [ -5.82815811191154, 37.34362980869156, 0.0 ] } },
{ "type": "Feature", "properties": { "id": 123.0, "nombre": "Olivar de Quintos", "linea": "Tranvía de Dos Hermanas", "lugar": "Dos Hermanas", "poblacion": 37201.0, "renta": 35855.7, "gasto": 28844.18, "empleos": 61.0, "indice_servicios": 0.097, "turistas": 6017.0, "sevilla": "No" }, "geometry": { "type": "Point", "coordinates": [ -5.938344391103803, 37.329408645805181, 0.0 ] } },
{ "type": "Feature", "properties": { "id": 124.0, "nombre": "Gran Hipodromo", "linea": "Tranvía de Dos Hermanas", "lugar": "Dos Hermanas", "poblacion": 37201.0, "renta": 35855.7, "gasto": 28844.18, "empleos": 61.0, "indice_servicios": 0.097, "turistas": 6017.0, "sevilla": "No" }, "geometry": { "type": "Point", "coordinates": [ -5.94022531889143, 37.320957936694505, 0.0 ] } },
{ "type": "Feature", "properties": { "id": 125.0, "nombre": "Entrenúcleos", "linea": "Tranvía de Dos Hermanas", "lugar": "Dos Hermanas", "poblacion": 37201.0, "renta": 35855.7, "gasto": 28844.18, "empleos": 61.0, "indice_servicios": 0.097, "turistas": 6017.0, "sevilla": "No" }, "geometry": { "type": "Point", "coordinates": [ -5.933661667726756, 37.314538974237564, 0.0 ] } },
{ "type": "Feature", "properties": { "id": 126.0, "nombre": "Parque Forestal", "linea": "Tranvía de Dos Hermanas", "lugar": "Dos Hermanas", "poblacion": 37201.0, "renta": 35855.7, "gasto": 28844.18, "empleos": 61.0, "indice_servicios": 0.097, "turistas": 6017.0, "sevilla": "No" }, "geometry": { "type": "Point", "coordinates": [ -5.935188525328378, 37.298401621465636, 0.0 ] } },
{ "type": "Feature", "properties": { "id": 127.0, "nombre": "Casilla de los Pinos", "linea": "Tranvía de Dos Hermanas", "lugar": "Dos Hermanas", "poblacion": 31170.0, "renta": 28844.9, "gasto": 28889.81, "empleos": 51.0, "indice_servicios": 0.077, "turistas": 4667.0, "sevilla": "No" }, "geometry": { "type": "Point", "coordinates": [ -5.942042866353884, 37.29231579463017, 0.0 ] } },
{ "type": "Feature", "properties": { "id": 128.0, "nombre": "La Motilla", "linea": "Tranvía de Dos Hermanas", "lugar": "Dos Hermanas", "poblacion": 19627.0, "renta": 28733.9, "gasto": 30026.91, "empleos": 20.0, "indice_servicios": 0.075, "turistas": 3489.0, "sevilla": "No" }, "geometry": { "type": "Point", "coordinates": [ -5.942613612409709, 37.287204216394706, 0.0 ] } },
{ "type": "Feature", "properties": { "id": 129.0, "nombre": "Doctor Fleming", "linea": "Tranvía de Dos Hermanas", "lugar": "Dos Hermanas", "poblacion": 19627.0, "renta": 28733.9, "gasto": 30026.91, "empleos": 20.0, "indice_servicios": 0.075, "turistas": 3489.0, "sevilla": "No" }, "geometry": { "type": "Point", "coordinates": [ -5.938770321970307, 37.282864462031377, 0.0 ] } },
{ "type": "Feature", "properties": { "id": 130.0, "nombre": "Barriada El Rocio", "linea": "Tranvía de Dos Hermanas", "lugar": "Dos Hermanas", "poblacion": 19627.0, "renta": 28733.9, "gasto": 30026.91, "empleos": 20.0, "indice_servicios": 0.075, "turistas": 3489.0, "sevilla": "No" }, "geometry": { "type": "Point", "coordinates": [ -5.931114127489322, 37.273058049548723, 0.0 ] } },
{ "type": "Feature", "properties": { "id": 131.0, "nombre": "Avenida Cristobal Colón", "linea": "Tranvía de Dos Hermanas", "lugar": "Dos Hermanas", "poblacion": 19627.0, "renta": 28733.9, "gasto": 30026.91, "empleos": 20.0, "indice_servicios": 0.075, "turistas": 3489.0, "sevilla": "No" }, "geometry": { "type": "Point", "coordinates": [ -5.934818912487536, 37.278435990376209, 0.0 ] } },
{ "type": "Feature", "properties": { "id": 132.0, "nombre": "Barriada Las Torres", "linea": "Tranvía de Dos Hermanas", "lugar": "Dos Hermanas", "poblacion": 19627.0, "renta": 28733.9, "gasto": 30026.91, "empleos": 20.0, "indice_servicios": 0.075, "turistas": 3489.0, "sevilla": "No" }, "geometry": { "type": "Point", "coordinates": [ -5.926705508718559, 37.267594244068576, 0.0 ] } },
{ "type": "Feature", "properties": { "id": 144.0, "nombre": "La Algaba", "linea": "Tranvía del Norte", "lugar": "La Algaba", "poblacion": 13725.0, "renta": 23493.8, "gasto": 29254.78, "empleos": 12.0, "indice_servicios": 0.073, "turistas": 753.0, "sevilla": "No" }, "geometry": { "type": "Point", "coordinates": [ -6.00690812868244, 37.467118960802019, 0.0 ] } },
{ "type": "Feature", "properties": { "id": 145.0, "nombre": "San José de la Rinconada", "linea": "Tranvía del Norte", "lugar": "La Rinconada", "poblacion": 33101.0, "renta": 24625.3, "gasto": 28863.28, "empleos": 46.0, "indice_servicios": 0.099, "turistas": 2019.0, "sevilla": "No" }, "geometry": { "type": "Point", "coordinates": [ -5.939923007998949, 37.479939212370638, 0.0 ] } },
{ "type": "Feature", "properties": { "id": 146.0, "nombre": "San Jerónimo Cercanías", "linea": "Tranvía del Norte", "lugar": "Sevilla Norte", "poblacion": 11195.0, "renta": 21005.7, "gasto": 29490.84, "empleos": 10.0, "indice_servicios": 0.086, "turistas": 20112.0, "sevilla": "Si" }, "geometry": { "type": "Point", "coordinates": [ -5.981452336134983, 37.433774565173863, 0.0 ] } },
{ "type": "Feature", "properties": { "id": 147.0, "nombre": "San Jerónimo", "linea": "Tranvía del Norte", "lugar": "Sevilla Norte", "poblacion": 11195.0, "renta": 21005.7, "gasto": 29490.84, "empleos": 10.0, "indice_servicios": 0.086, "turistas": 20112.0, "sevilla": "Si" }, "geometry": { "type": "Point", "coordinates": [ -5.982221197387732, 37.424692141650006, 0.0 ] } },
{ "type": "Feature", "properties": { "id": 148.0, "nombre": "Hospital San Lazaro", "linea": "Tranvía del Norte", "lugar": "Macarena", "poblacion": 11106.0, "renta": 27464.6, "gasto": 29754.66, "empleos": 14.0, "indice_servicios": 0.07, "turistas": 103987.0, "sevilla": "Si" }, "geometry": { "type": "Point", "coordinates": [ -5.982264922000872, 37.413518461781457, 0.0 ] } },
{ "type": "Feature", "properties": { "id": 150.0, "nombre": "Sevilla Santa Justa", "linea": "Linea C1 Cercanías", "lugar": "San Pablo-Santa Justa", "poblacion": 18380.0, "renta": 36216.0, "gasto": 29438.25, "empleos": 101.0, "indice_servicios": 0.225, "turistas": 219833.0, "sevilla": "Si" }, "geometry": { "type": "Point", "coordinates": [ -5.97520650442136, 37.392092270125659, 0.0 ] } },
{ "type": "Feature", "properties": { "id": 151.0, "nombre": "Sevilla San Bernardo", "linea": "Linea C1 Cercanías", "lugar": "Sevilla Sur", "poblacion": 18177.0, "renta": 54403.3, "gasto": 29598.84, "empleos": 138.0, "indice_servicios": 0.162, "turistas": 72548.0, "sevilla": "Si" }, "geometry": { "type": "Point", "coordinates": [ -5.9796034790084, 37.377936913686568, 0.0 ] } },
{ "type": "Feature", "properties": { "id": 152.0, "nombre": "Lebrija", "linea": "Linea C1 Cercanías", "lugar": "Lebrija", "poblacion": 37201.0, "renta": 35855.7, "gasto": 28844.18, "empleos": 61.0, "indice_servicios": 0.097, "turistas": 6017.0, "sevilla": "No" }, "geometry": { "type": "Point", "coordinates": [ -6.09520203457379, 36.911546009446411, 0.0 ] } },
{ "type": "Feature", "properties": { "id": 153.0, "nombre": "Estadio Olimpico", "linea": "Linea C2 Cercanías", "lugar": "Santiponce", "poblacion": 7293.0, "renta": 25215.4, "gasto": 28667.96, "empleos": 3.0, "indice_servicios": 0.042, "turistas": 3907.0, "sevilla": "No" }, "geometry": { "type": "Point", "coordinates": [ -6.007512837996327, 37.417283621252892, 0.0 ] } },
{ "type": "Feature", "properties": { "id": 154.0, "nombre": "Alcolea del Rio", "linea": "Linea C3 Cercanías", "lugar": "Villanueva del Río y Minas", "poblacion": 33101.0, "renta": 24625.3, "gasto": 28863.28, "empleos": 46.0, "indice_servicios": 0.099, "turistas": 2019.0, "sevilla": "No" }, "geometry": { "type": "Point", "coordinates": [ -5.731007550568582, 37.635467626825474, 0.0 ] } },
{ "type": "Feature", "properties": { "id": 155.0, "nombre": "Virgen del Rocio", "linea": "Linea C1 Cercanías", "lugar": "Sevilla Sur", "poblacion": 13754.0, "renta": 15486.2, "gasto": 29535.7, "empleos": 5.0, "indice_servicios": 0.056, "turistas": 4124.0, "sevilla": "Si" }, "geometry": { "type": "Point", "coordinates": [ -5.975823029609724, 37.362813735701458, 0.0 ] } },
{ "type": "Feature", "properties": { "id": 156.0, "nombre": "Jardines de Hercules", "linea": "Linea C1 Cercanías", "lugar": "Bellavista-La Palmera", "poblacion": 25656.0, "renta": 34521.9, "gasto": 29315.15, "empleos": 16.0, "indice_servicios": 0.064, "turistas": 84299.0, "sevilla": "Si" }, "geometry": { "type": "Point", "coordinates": [ -5.963953568463543, 37.332897090909924, 0.0 ] } },
{ "type": "Feature", "properties": { "id": 157.0, "nombre": "Bellavista", "linea": "Linea C1 Cercanías", "lugar": "Dos Hermanas", "poblacion": 37201.0, "renta": 35855.7, "gasto": 28844.18, "empleos": 61.0, "indice_servicios": 0.097, "turistas": 6017.0, "sevilla": "No" }, "geometry": { "type": "Point", "coordinates": [ -5.964227495719181, 37.321394491931493, 0.0 ] } },
{ "type": "Feature", "properties": { "id": 158.0, "nombre": "Dos Hermanas", "linea": "Linea C1 Cercanías", "lugar": "Dos Hermanas", "poblacion": 31170.0, "renta": 28844.9, "gasto": 28889.81, "empleos": 51.0, "indice_servicios": 0.077, "turistas": 4667.0, "sevilla": "No" }, "geometry": { "type": "Point", "coordinates": [ -5.923317135787372, 37.287216782667819, 0.0 ] } },
{ "type": "Feature", "properties": { "id": 159.0, "nombre": "Cantaelgallo", "linea": "Linea C1 Cercanías", "lugar": "Dos Hermanas", "poblacion": 37201.0, "renta": 35855.7, "gasto": 28844.18, "empleos": 61.0, "indice_servicios": 0.097, "turistas": 6017.0, "sevilla": "No" }, "geometry": { "type": "Point", "coordinates": [ -5.91065626968124, 37.278490421929014, 0.0 ] } },
{ "type": "Feature", "properties": { "id": 160.0, "nombre": "Utrera", "linea": "Linea C1 Cercanías", "lugar": "Utrera", "poblacion": 41627.0, "renta": 27336.5, "gasto": 28371.59, "empleos": 61.0, "indice_servicios": 0.076, "turistas": 2132.0, "sevilla": "No" }, "geometry": { "type": "Point", "coordinates": [ -5.790240694632121, 37.183345586678549, 0.0 ] } },
{ "type": "Feature", "properties": { "id": 161.0, "nombre": "Las Cabezas de San Juan", "linea": "Linea C1 Cercanías", "lugar": "Las Cabezas de San Juan", "poblacion": 37201.0, "renta": 35855.7, "gasto": 28844.18, "empleos": 61.0, "indice_servicios": 0.097, "turistas": 6017.0, "sevilla": "No" }, "geometry": { "type": "Point", "coordinates": [ -5.945688581610073, 37.018520916265246, 0.0 ] } },
{ "type": "Feature", "properties": { "id": 162.0, "nombre": "Palacio de Congresos", "linea": "Linea C4 Cercanías", "lugar": "Alcosa-Torreblanca", "poblacion": 20480.0, "renta": 41549.4, "gasto": 30113.61, "empleos": 21.0, "indice_servicios": 0.042, "turistas": 7874.0, "sevilla": "Si" }, "geometry": { "type": "Point", "coordinates": [ -5.93639637810293, 37.403683089690404, 0.0 ] } },
{ "type": "Feature", "properties": { "id": 164.0, "nombre": "Casilla de los Pinos", "linea": "Linea C1 Cercanías", "lugar": "Dos Hermanas", "poblacion": 31170.0, "renta": 28844.9, "gasto": 28889.81, "empleos": 51.0, "indice_servicios": 0.077, "turistas": 4667.0, "sevilla": "No" }, "geometry": { "type": "Point", "coordinates": [ -5.942042866355681, 37.292315794633026, 0.0 ] } },
{ "type": "Feature", "properties": { "id": 165.0, "nombre": "Cartuja", "linea": "Linea C2 Cercanías", "lugar": "Triana", "poblacion": 14493.0, "renta": 31641.4, "gasto": 29829.36, "empleos": 56.0, "indice_servicios": 0.154, "turistas": 163572.0, "sevilla": "Si" }, "geometry": { "type": "Point", "coordinates": [ -6.010119590485832, 37.40724279161104, 0.0 ] } },
{ "type": "Feature", "properties": { "id": 166.0, "nombre": "San Jeronimo", "linea": "Linea C2 Cercanías", "lugar": "Sevilla Norte", "poblacion": 11195.0, "renta": 21005.7, "gasto": 29490.84, "empleos": 10.0, "indice_servicios": 0.086, "turistas": 20112.0, "sevilla": "Si" }, "geometry": { "type": "Point", "coordinates": [ -5.981452350857075, 37.433774565173863, 0.0 ] } },
{ "type": "Feature", "properties": { "id": 167.0, "nombre": "La Rinconada", "linea": "Linea C1 Cercanías", "lugar": "La Rinconada", "poblacion": 33101.0, "renta": 24625.3, "gasto": 28863.28, "empleos": 46.0, "indice_servicios": 0.099, "turistas": 2019.0, "sevilla": "No" }, "geometry": { "type": "Point", "coordinates": [ -5.939923007998949, 37.479939212370638, 0.0 ] } },
{ "type": "Feature", "properties": { "id": 168.0, "nombre": "El Cañamo", "linea": "Linea C1 Cercanías", "lugar": "La Rinconada", "poblacion": 33101.0, "renta": 24625.3, "gasto": 28863.28, "empleos": 46.0, "indice_servicios": 0.099, "turistas": 2019.0, "sevilla": "No" }, "geometry": { "type": "Point", "coordinates": [ -5.932938904100269, 37.48632123947943, 0.0 ] } },
{ "type": "Feature", "properties": { "id": 169.0, "nombre": "Brenes", "linea": "Linea C1 Cercanías", "lugar": "Brenes", "poblacion": 33101.0, "renta": 24625.3, "gasto": 28863.28, "empleos": 46.0, "indice_servicios": 0.099, "turistas": 2019.0, "sevilla": "No" }, "geometry": { "type": "Point", "coordinates": [ -5.866842715772832, 37.546054612920706, 0.0 ] } },
{ "type": "Feature", "properties": { "id": 170.0, "nombre": "Cantillana", "linea": "Linea C1 Cercanías", "lugar": "Cantillana", "poblacion": 33101.0, "renta": 24625.3, "gasto": 28863.28, "empleos": 46.0, "indice_servicios": 0.099, "turistas": 2019.0, "sevilla": "No" }, "geometry": { "type": "Point", "coordinates": [ -5.803385729537046, 37.574709322066454, 0.0 ] } },
{ "type": "Feature", "properties": { "id": 171.0, "nombre": "Los Rosales", "linea": "Linea C1 Cercanías", "lugar": "Tocina", "poblacion": 33101.0, "renta": 24625.3, "gasto": 28863.28, "empleos": 46.0, "indice_servicios": 0.099, "turistas": 2019.0, "sevilla": "No" }, "geometry": { "type": "Point", "coordinates": [ -5.726996109122179, 37.590123044359785, 0.0 ] } },
{ "type": "Feature", "properties": { "id": 172.0, "nombre": "Guadajoz", "linea": "Linea C1 Cercanías", "lugar": "Carmona", "poblacion": 33101.0, "renta": 24625.3, "gasto": 28863.28, "empleos": 46.0, "indice_servicios": 0.099, "turistas": 2019.0, "sevilla": "No" }, "geometry": { "type": "Point", "coordinates": [ -5.669823144286747, 37.581566048057418, 0.0 ] } },
{ "type": "Feature", "properties": { "id": 173.0, "nombre": "Lora del Rio", "linea": "Linea C1 Cercanías", "lugar": "Lora del Río", "poblacion": 33101.0, "renta": 24625.3, "gasto": 28863.28, "empleos": 46.0, "indice_servicios": 0.099, "turistas": 2019.0, "sevilla": "No" }, "geometry": { "type": "Point", "coordinates": [ -5.53107835952854, 37.661287446697166, 0.0 ] } },
{ "type": "Feature", "properties": { "id": 174.0, "nombre": "Tocina", "linea": "Linea C3 Cercanías", "lugar": "Tocina", "poblacion": 33101.0, "renta": 24625.3, "gasto": 28863.28, "empleos": 46.0, "indice_servicios": 0.099, "turistas": 2019.0, "sevilla": "No" }, "geometry": { "type": "Point", "coordinates": [ -5.731530291146215, 37.609128404731699, 0.0 ] } },
{ "type": "Feature", "properties": { "id": 175.0, "nombre": "Villanueva del Rio y Minas", "linea": "Linea C3 Cercanías", "lugar": "Villanueva del Río y Minas", "poblacion": 33101.0, "renta": 24625.3, "gasto": 28863.28, "empleos": 46.0, "indice_servicios": 0.099, "turistas": 2019.0, "sevilla": "No" }, "geometry": { "type": "Point", "coordinates": [ -5.711954669717886, 37.661670903720953, 0.0 ] } },
{ "type": "Feature", "properties": { "id": 135.0, "nombre": "Ciudad Expo", "linea": "Tranvía del Aljarafe 1", "lugar": "Mairena del Aljarafe", "poblacion": 39305.0, "renta": 34878.2, "gasto": 28734.58, "empleos": 47.0, "indice_servicios": 0.085, "turistas": 11654.0, "sevilla": "No" }, "geometry": { "type": "Point", "coordinates": [ -6.051691545158789, 37.349262165071003, 0.0 ] } },
{ "type": "Feature", "properties": { "id": 176.0, "nombre": "Pedroso", "linea": "Linea C3 Cercanías", "lugar": "El Pedroso", "poblacion": 33101.0, "renta": 24625.3, "gasto": 28863.28, "empleos": 46.0, "indice_servicios": 0.099, "turistas": 2019.0, "sevilla": "No" }, "geometry": { "type": "Point", "coordinates": [ -5.761991987814993, 37.837414207982583, 0.0 ] } },
{ "type": "Feature", "properties": { "id": 177.0, "nombre": "Cazalla-Constantina", "linea": "Linea C3 Cercanías", "lugar": "Cazalla de la Sierra", "poblacion": 33101.0, "renta": 24625.3, "gasto": 28863.28, "empleos": 46.0, "indice_servicios": 0.099, "turistas": 2019.0, "sevilla": "No" }, "geometry": { "type": "Point", "coordinates": [ -5.704243992392347, 37.932702481700879, 0.0 ] } },
{ "type": "Feature", "properties": { "id": 178.0, "nombre": "Camas Norte", "linea": "Linea C5 Cercanías", "lugar": "Valencina de la Concepción", "poblacion": 9314.0, "renta": 35696.4, "gasto": 28684.41, "empleos": 12.0, "indice_servicios": 0.071, "turistas": 265.0, "sevilla": "No" }, "geometry": { "type": "Point", "coordinates": [ -6.040775170008744, 37.417949129488704, 0.0 ] } },
{ "type": "Feature", "properties": { "id": 179.0, "nombre": "Valencina-Santiponce", "linea": "Linea C5 Cercanías", "lugar": "Valencina de la Concepción", "poblacion": 9314.0, "renta": 35696.4, "gasto": 28684.41, "empleos": 12.0, "indice_servicios": 0.071, "turistas": 265.0, "sevilla": "No" }, "geometry": { "type": "Point", "coordinates": [ -6.056876136191776, 37.426658581879941, 0.0 ] } },
{ "type": "Feature", "properties": { "id": 180.0, "nombre": "Salteras", "linea": "Linea C5 Cercanías", "lugar": "Salteras", "poblacion": 9314.0, "renta": 35696.4, "gasto": 28684.41, "empleos": 12.0, "indice_servicios": 0.071, "turistas": 265.0, "sevilla": "No" }, "geometry": { "type": "Point", "coordinates": [ -6.098969568973544, 37.410287828528389, 0.0 ] } },
{ "type": "Feature", "properties": { "id": 181.0, "nombre": "Villanueva del Ariscal y Olivares", "linea": "Linea C5 Cercanías", "lugar": "Villanueva del Ariscal", "poblacion": 9314.0, "renta": 35696.4, "gasto": 28684.41, "empleos": 12.0, "indice_servicios": 0.071, "turistas": 265.0, "sevilla": "No" }, "geometry": { "type": "Point", "coordinates": [ -6.148288976746486, 37.407225274702661, 0.0 ] } },
{ "type": "Feature", "properties": { "id": 182.0, "nombre": "Sanlucar la Mayor", "linea": "Linea C5 Cercanías", "lugar": "Sanlúcar la Mayor", "poblacion": 18273.0, "renta": 36722.0, "gasto": 28598.01, "empleos": 18.0, "indice_servicios": 0.062, "turistas": 1663.0, "sevilla": "No" }, "geometry": { "type": "Point", "coordinates": [ -6.193740535648636, 37.381473394265569, 0.0 ] } },
{ "type": "Feature", "properties": { "id": 183.0, "nombre": "Benacazón", "linea": "Linea C5 Cercanías", "lugar": "Benacazón", "poblacion": 39305.0, "renta": 34878.2, "gasto": 28734.58, "empleos": 47.0, "indice_servicios": 0.085, "turistas": 11654.0, "sevilla": "No" }, "geometry": { "type": "Point", "coordinates": [ -6.20798417498238, 37.357107628546125, 0.0 ] } },
{ "type": "Feature", "properties": { "id": 184.0, "nombre": "Los Palacios y Villafranca", "linea": "Linea C1 Cercanías", "lugar": "Los Palacios y Villafranca", "poblacion": 37201.0, "renta": 35855.7, "gasto": 28844.18, "empleos": 61.0, "indice_servicios": 0.097, "turistas": 6017.0, "sevilla": "No" }, "geometry": { "type": "Point", "coordinates": [ -5.911835521340126, 37.163270176413832, 0.0 ] } },
{ "type": "Feature", "properties": { "id": 186.0, "nombre": "San Juan de Aznalfarache", "linea": "Linea C2 Cercanías", "lugar": "San Juan de Aznalfarache", "poblacion": 18273.0, "renta": 22324.8, "gasto": 28031.15, "empleos": 47.0, "indice_servicios": 0.112, "turistas": 3687.0, "sevilla": "No" }, "geometry": { "type": "Point", "coordinates": [ -6.025145884550676, 37.367019203261542, 0.0 ] } },
{ "type": "Feature", "properties": { "id": 187.0, "nombre": "Carrión de los Cespedes", "linea": "Linea C5 Cercanías", "lugar": "Carrión de los Céspedes", "poblacion": 39305.0, "renta": 34878.2, "gasto": 28734.58, "empleos": 47.0, "indice_servicios": 0.085, "turistas": 11654.0, "sevilla": "No" }, "geometry": { "type": "Point", "coordinates": [ -6.335171516700581, 37.368893603825946, 0.0 ] } },
{ "type": "Feature", "properties": { "id": 188.0, "nombre": "Aeropuerto San Pablo", "linea": "Linea C6 Cercanías", "lugar": "Alcosa-Torreblanca", "poblacion": 21320.0, "renta": 29277.3, "gasto": 29917.09, "empleos": 14.0, "indice_servicios": 0.104, "turistas": 14554.0, "sevilla": "Si" }, "geometry": { "type": "Point", "coordinates": [ -5.903067664862927, 37.424473160720204, 0.0 ] } },
{ "type": "Feature", "properties": { "id": 189.0, "nombre": "Alcalá de Guadaira", "linea": "Linea C7 Cercanías", "lugar": "Alcalá de Guadaíra", "poblacion": 11961.0, "renta": 24636.5, "gasto": 28620.71, "empleos": 30.0, "indice_servicios": 0.118, "turistas": 1615.0, "sevilla": "No" }, "geometry": { "type": "Point", "coordinates": [ -5.848274613922735, 37.333016405902498, 0.0 ] } },
{ "type": "Feature", "properties": { "id": 190.0, "nombre": "Mairena del Alcor", "linea": "Linea C7 Cercanías", "lugar": "Mairena del Alcor", "poblacion": 41627.0, "renta": 27336.5, "gasto": 28371.59, "empleos": 61.0, "indice_servicios": 0.076, "turistas": 2132.0, "sevilla": "No" }, "geometry": { "type": "Point", "coordinates": [ -5.74672172841202, 37.368932334764196, 0.0 ] } },
{ "type": "Feature", "properties": { "id": 191.0, "nombre": "El Viso del Alcor", "linea": "Linea C7 Cercanías", "lugar": "El Viso del Alcor", "poblacion": 41627.0, "renta": 27336.5, "gasto": 28371.59, "empleos": 61.0, "indice_servicios": 0.076, "turistas": 2132.0, "sevilla": "No" }, "geometry": { "type": "Point", "coordinates": [ -5.715599592262465, 37.382471268849557, 0.0 ] } },
{ "type": "Feature", "properties": { "id": 192.0, "nombre": "Carmona", "linea": "Linea C7 Cercanías", "lugar": "Carmona", "poblacion": 33101.0, "renta": 24625.3, "gasto": 28863.28, "empleos": 46.0, "indice_servicios": 0.099, "turistas": 2019.0, "sevilla": "No" }, "geometry": { "type": "Point", "coordinates": [ -5.640335547080089, 37.46977078380192, 0.0 ] } },
{ "type": "Feature", "properties": { "id": 195.0, "nombre": "Gelves", "linea": "Linea C2 Cercanías", "lugar": "Gelves", "poblacion": 8743.0, "renta": 32692.1, "gasto": 29185.08, "empleos": 8.0, "indice_servicios": 0.048, "turistas": 557.0, "sevilla": "No" }, "geometry": { "type": "Point", "coordinates": [ -6.025196963924166, 37.342609942029583, 0.0 ] } },
{ "type": "Feature", "properties": { "id": 197.0, "nombre": "Arahal", "linea": "Linea C5 Cercanías", "lugar": "Arahal", "poblacion": 41627.0, "renta": 27336.5, "gasto": 28371.59, "empleos": 61.0, "indice_servicios": 0.076, "turistas": 2132.0, "sevilla": "No" }, "geometry": { "type": "Point", "coordinates": [ -5.548465353088003, 37.268220814304684, 0.0 ] } },
{ "type": "Feature", "properties": { "id": 198.0, "nombre": "Marchena", "linea": "Linea C5 Cercanías", "lugar": "Marchena", "poblacion": 41627.0, "renta": 27336.5, "gasto": 28371.59, "empleos": 61.0, "indice_servicios": 0.076, "turistas": 2132.0, "sevilla": "No" }, "geometry": { "type": "Point", "coordinates": [ -5.425496598335524, 37.334341890135342, 0.0 ] } },
{ "type": "Feature", "properties": { "id": 199.0, "nombre": "Osuna", "linea": "Linea C5 Cercanías", "lugar": "Osuna", "poblacion": 41627.0, "renta": 27336.5, "gasto": 28371.59, "empleos": 61.0, "indice_servicios": 0.076, "turistas": 2132.0, "sevilla": "No" }, "geometry": { "type": "Point", "coordinates": [ -5.114969546282943, 37.233705958847608, 0.0 ] } },
{ "type": "Feature", "properties": { "id": 200.0, "nombre": "Aznalcazar", "linea": "Linea C5 Cercanías", "lugar": "Aznalcázar", "poblacion": 39305.0, "renta": 34878.2, "gasto": 28734.58, "empleos": 47.0, "indice_servicios": 0.085, "turistas": 11654.0, "sevilla": "No" }, "geometry": { "type": "Point", "coordinates": [ -6.248953800796301, 37.310011420073337, 0.0 ] } },
{ "type": "Feature", "properties": { "id": 201.0, "nombre": "Huevar del Aljarafe", "linea": "Linea C5 Cercanías", "lugar": "Huévar del Aljarafe", "poblacion": 39305.0, "renta": 34878.2, "gasto": 28734.58, "empleos": 47.0, "indice_servicios": 0.085, "turistas": 11654.0, "sevilla": "No" }, "geometry": { "type": "Point", "coordinates": [ -6.283438077848277, 37.35344184825631, 0.0 ] } },
{ "type": "Feature", "properties": { "id": 202.0, "nombre": "Montecarmelo", "linea": "Linea C7 Cercanías", "lugar": "Alcalá de Guadaíra", "poblacion": 11961.0, "renta": 24636.5, "gasto": 28620.71, "empleos": 30.0, "indice_servicios": 0.118, "turistas": 1615.0, "sevilla": "No" }, "geometry": { "type": "Point", "coordinates": [ -5.82815811191154, 37.34362980869156, 0.0 ] } },
{ "type": "Feature", "properties": { "id": 204.0, "nombre": "Espartinas", "linea": "Linea C5 Cercanías", "lugar": "Salteras", "poblacion": 9314.0, "renta": 35696.4, "gasto": 28684.41, "empleos": 12.0, "indice_servicios": 0.071, "turistas": 265.0, "sevilla": "No" }, "geometry": { "type": "Point", "coordinates": [ -6.115928142797703, 37.398451141621862, 0.0 ] } },
{ "type": "Feature", "properties": { "id": 205.0, "nombre": "Torre Sevilla", "linea": "Linea C2 Cercanías", "lugar": "Triana", "poblacion": 14493.0, "renta": 31641.4, "gasto": 29829.36, "empleos": 56.0, "indice_servicios": 0.154, "turistas": 163572.0, "sevilla": "Si" }, "geometry": { "type": "Point", "coordinates": [ -6.011501759849252, 37.394625657549078, 0.0 ] } },
{ "type": "Feature", "properties": { "id": 206.0, "nombre": "Palacio de Congresos", "linea": "Linea C6 Cercanías", "lugar": "Alcosa-Torreblanca", "poblacion": 20480.0, "renta": 41549.4, "gasto": 30113.61, "empleos": 21.0, "indice_servicios": 0.042, "turistas": 7874.0, "sevilla": "Si" }, "geometry": { "type": "Point", "coordinates": [ -5.936396378102931, 37.403683089690404, 0.0 ] } },
{ "type": "Feature", "properties": { "id": 207.0, "nombre": "San Jeronimo", "linea": "Linea C5 Cercanías", "lugar": "Sevilla Norte", "poblacion": 11195.0, "renta": 21005.7, "gasto": 29490.84, "empleos": 10.0, "indice_servicios": 0.086, "turistas": 20112.0, "sevilla": "Si" }, "geometry": { "type": "Point", "coordinates": [ -5.981452350857074, 37.433774553483701, 0.0 ] } },
{ "type": "Feature", "properties": { "id": 208.0, "nombre": "La Rinconada", "linea": "Linea C3 Cercanías", "lugar": "La Rinconada", "poblacion": 33101.0, "renta": 24625.3, "gasto": 28863.28, "empleos": 46.0, "indice_servicios": 0.099, "turistas": 2019.0, "sevilla": "No" }, "geometry": { "type": "Point", "coordinates": [ -5.939923007998949, 37.479939212370638, 0.0 ] } },
{ "type": "Feature", "properties": { "id": 209.0, "nombre": "El Cañamo", "linea": "Linea C3 Cercanías", "lugar": "La Rinconada", "poblacion": 33101.0, "renta": 24625.3, "gasto": 28863.28, "empleos": 46.0, "indice_servicios": 0.099, "turistas": 2019.0, "sevilla": "No" }, "geometry": { "type": "Point", "coordinates": [ -5.932938904100269, 37.48632123947943, 0.0 ] } },
{ "type": "Feature", "properties": { "id": 210.0, "nombre": "Brenes", "linea": "Linea C3 Cercanías", "lugar": "Brenes", "poblacion": 33101.0, "renta": 24625.3, "gasto": 28863.28, "empleos": 46.0, "indice_servicios": 0.099, "turistas": 2019.0, "sevilla": "No" }, "geometry": { "type": "Point", "coordinates": [ -5.86677397364145, 37.546100558062946, 0.0 ] } },
{ "type": "Feature", "properties": { "id": 211.0, "nombre": "Cantillana", "linea": "Linea C3 Cercanías", "lugar": "Cantillana", "poblacion": 33101.0, "renta": 24625.3, "gasto": 28863.28, "empleos": 46.0, "indice_servicios": 0.099, "turistas": 2019.0, "sevilla": "No" }, "geometry": { "type": "Point", "coordinates": [ -5.803385729537046, 37.574709322066454, 0.0 ] } },
{ "type": "Feature", "properties": { "id": 212.0, "nombre": "Los Rosales", "linea": "Linea C3 Cercanías", "lugar": "Tocina", "poblacion": 33101.0, "renta": 24625.3, "gasto": 28863.28, "empleos": 46.0, "indice_servicios": 0.099, "turistas": 2019.0, "sevilla": "No" }, "geometry": { "type": "Point", "coordinates": [ -5.726996109122179, 37.590123044359785, 0.0 ] } },
{ "type": "Feature", "properties": { "id": 213.0, "nombre": "Jardines de Hercules", "linea": "Linea C5 Cercanías", "lugar": "Bellavista-La Palmera", "poblacion": 25656.0, "renta": 34521.9, "gasto": 29315.15, "empleos": 16.0, "indice_servicios": 0.064, "turistas": 84299.0, "sevilla": "Si" }, "geometry": { "type": "Point", "coordinates": [ -5.963953568463543, 37.332897090909924, 0.0 ] } },
{ "type": "Feature", "properties": { "id": 214.0, "nombre": "Bellavista", "linea": "Linea C5 Cercanías", "lugar": "Dos Hermanas", "poblacion": 37201.0, "renta": 35855.7, "gasto": 28844.18, "empleos": 61.0, "indice_servicios": 0.097, "turistas": 6017.0, "sevilla": "No" }, "geometry": { "type": "Point", "coordinates": [ -5.964227495719181, 37.321394491931493, 0.0 ] } },
{ "type": "Feature", "properties": { "id": 215.0, "nombre": "Dos Hermanas", "linea": "Linea C5 Cercanías", "lugar": "Dos Hermanas", "poblacion": 31170.0, "renta": 28844.9, "gasto": 28889.81, "empleos": 51.0, "indice_servicios": 0.077, "turistas": 4667.0, "sevilla": "No" }, "geometry": { "type": "Point", "coordinates": [ -5.923317121065279, 37.287216782667819, 0.0 ] } },
{ "type": "Feature", "properties": { "id": 216.0, "nombre": "Casilla de los Pinos", "linea": "Linea C5 Cercanías", "lugar": "Dos Hermanas", "poblacion": 31170.0, "renta": 28844.9, "gasto": 28889.81, "empleos": 51.0, "indice_servicios": 0.077, "turistas": 4667.0, "sevilla": "No" }, "geometry": { "type": "Point", "coordinates": [ -5.942042866348491, 37.292315794630156, 0.0 ] } },
{ "type": "Feature", "properties": { "id": 217.0, "nombre": "Jardines de Hercules", "linea": "Linea C7 Cercanías", "lugar": "Bellavista-La Palmera", "poblacion": 25656.0, "renta": 34521.9, "gasto": 29315.15, "empleos": 16.0, "indice_servicios": 0.064, "turistas": 84299.0, "sevilla": "Si" }, "geometry": { "type": "Point", "coordinates": [ -5.964000672087282, 37.332918758686212, 0.0 ] } },
{ "type": "Feature", "properties": { "id": 218.0, "nombre": "Bellavista", "linea": "Linea C7 Cercanías", "lugar": "Dos Hermanas", "poblacion": 37201.0, "renta": 35855.7, "gasto": 28844.18, "empleos": 61.0, "indice_servicios": 0.097, "turistas": 6017.0, "sevilla": "No" }, "geometry": { "type": "Point", "coordinates": [ -5.964227495719181, 37.321394491931493, 0.0 ] } },
{ "type": "Feature", "properties": { "id": 185.0, "nombre": "La Pañoleta", "linea": "Linea C2 Cercanías", "lugar": "Camas", "poblacion": 23756.0, "renta": 24119.8, "gasto": 29585.12, "empleos": 38.0, "indice_servicios": 0.094, "turistas": 2471.0, "sevilla": "No" }, "geometry": { "type": "Point", "coordinates": [ -6.026071302158733, 37.383262129834812, 0.0 ] } },
{ "type": "Feature", "properties": { "id": 196.0, "nombre": "Coria del Río", "linea": "Linea C2 Cercanías", "lugar": "Coria del Río", "poblacion": 26179.0, "renta": 22911.1, "gasto": 28507.45, "empleos": 34.0, "indice_servicios": 0.08, "turistas": 14900.0, "sevilla": "No" }, "geometry": { "type": "Point", "coordinates": [ -6.054268552153006, 37.296306705289169, 0.0 ] } },
{ "type": "Feature", "properties": { "id": 219.0, "nombre": "Dos Hermanas", "linea": "Linea C7 Cercanías", "lugar": "Dos Hermanas", "poblacion": 31170.0, "renta": 28844.9, "gasto": 28889.81, "empleos": 51.0, "indice_servicios": 0.077, "turistas": 4667.0, "sevilla": "No" }, "geometry": { "type": "Point", "coordinates": [ -5.923317121065279, 37.287216782667819, 0.0 ] } },
{ "type": "Feature", "properties": { "id": 220.0, "nombre": "Casilla de los Pinos", "linea": "Linea C7 Cercanías", "lugar": "Dos Hermanas", "poblacion": 31170.0, "renta": 28844.9, "gasto": 28889.81, "empleos": 51.0, "indice_servicios": 0.077, "turistas": 4667.0, "sevilla": "No" }, "geometry": { "type": "Point", "coordinates": [ -5.94204286635029, 37.292315794628742, 0.0 ] } },
{ "type": "Feature", "properties": { "id": 221.0, "nombre": "Sevilla San Bernardo", "linea": "Linea C4 Cercanías", "lugar": "Sevilla Sur", "poblacion": 18177.0, "renta": 54403.3, "gasto": 29598.84, "empleos": 138.0, "indice_servicios": 0.162, "turistas": 72548.0, "sevilla": "Si" }, "geometry": { "type": "Point", "coordinates": [ -5.9796034790084, 37.377936913686568, 0.0 ] } },
{ "type": "Feature", "properties": { "id": 222.0, "nombre": "Virgen del Rocio", "linea": "Linea C4 Cercanías", "lugar": "Sevilla Sur", "poblacion": 13754.0, "renta": 15486.2, "gasto": 29535.7, "empleos": 5.0, "indice_servicios": 0.056, "turistas": 4124.0, "sevilla": "Si" }, "geometry": { "type": "Point", "coordinates": [ -5.975823029609724, 37.362813739601883, 0.0 ] } },
{ "type": "Feature", "properties": { "id": 223.0, "nombre": "Sevilla San Bernardo", "linea": "Linea C5 Cercanías", "lugar": "Sevilla Sur", "poblacion": 18177.0, "renta": 54403.3, "gasto": 29598.84, "empleos": 138.0, "indice_servicios": 0.162, "turistas": 72548.0, "sevilla": "Si" }, "geometry": { "type": "Point", "coordinates": [ -5.9796034790084, 37.377936913686568, 0.0 ] } },
{ "type": "Feature", "properties": { "id": 224.0, "nombre": "Virgen del Rocio", "linea": "Linea C5 Cercanías", "lugar": "Sevilla Sur", "poblacion": 13754.0, "renta": 15486.2, "gasto": 29535.7, "empleos": 5.0, "indice_servicios": 0.056, "turistas": 4124.0, "sevilla": "Si" }, "geometry": { "type": "Point", "coordinates": [ -5.975823034517088, 37.362813739601883, 0.0 ] } },
{ "type": "Feature", "properties": { "id": 225.0, "nombre": "Sevilla San Bernardo", "linea": "Linea C7 Cercanías", "lugar": "Sevilla Sur", "poblacion": 18177.0, "renta": 54403.3, "gasto": 29598.84, "empleos": 138.0, "indice_servicios": 0.162, "turistas": 72548.0, "sevilla": "Si" }, "geometry": { "type": "Point", "coordinates": [ -5.9796034790084, 37.377936913686568, 0.0 ] } },
{ "type": "Feature", "properties": { "id": 226.0, "nombre": "Virgen del Rocio", "linea": "Linea C7 Cercanías", "lugar": "Sevilla Sur", "poblacion": 13754.0, "renta": 15486.2, "gasto": 29535.7, "empleos": 5.0, "indice_servicios": 0.056, "turistas": 4124.0, "sevilla": "Si" }, "geometry": { "type": "Point", "coordinates": [ -5.975823029609724, 37.362813739601883, 0.0 ] } },
{ "type": "Feature", "properties": { "id": 227.0, "nombre": "Sevilla Santa Justa", "linea": "Linea C2 Cercanías", "lugar": "San Pablo-Santa Justa", "poblacion": 18380.0, "renta": 36216.0, "gasto": 29438.25, "empleos": 101.0, "indice_servicios": 0.225, "turistas": 219833.0, "sevilla": "Si" }, "geometry": { "type": "Point", "coordinates": [ -5.975206504421359, 37.392092270125637, 0.0 ] } },
{ "type": "Feature", "properties": { "id": 228.0, "nombre": "Sevilla Santa Justa", "linea": "Linea C3 Cercanías", "lugar": "San Pablo-Santa Justa", "poblacion": 18380.0, "renta": 36216.0, "gasto": 29438.25, "empleos": 101.0, "indice_servicios": 0.225, "turistas": 219833.0, "sevilla": "Si" }, "geometry": { "type": "Point", "coordinates": [ -5.975206504421359, 37.392092270125637, 0.0 ] } },
{ "type": "Feature", "properties": { "id": 229.0, "nombre": "Sevilla Santa Justa", "linea": "Linea C4 Cercanías", "lugar": "San Pablo-Santa Justa", "poblacion": 18380.0, "renta": 36216.0, "gasto": 29438.25, "empleos": 101.0, "indice_servicios": 0.225, "turistas": 219833.0, "sevilla": "Si" }, "geometry": { "type": "Point", "coordinates": [ -5.975206504421359, 37.392092270125637, 0.0 ] } },
{ "type": "Feature", "properties": { "id": 230.0, "nombre": "Sevilla Santa Justa", "linea": "Linea C5 Cercanías", "lugar": "San Pablo-Santa Justa", "poblacion": 18380.0, "renta": 36216.0, "gasto": 29438.25, "empleos": 101.0, "indice_servicios": 0.225, "turistas": 219833.0, "sevilla": "Si" }, "geometry": { "type": "Point", "coordinates": [ -5.975206504421359, 37.392092270125637, 0.0 ] } },
{ "type": "Feature", "properties": { "id": 231.0, "nombre": "Sevilla Santa Justa", "linea": "Linea C6 Cercanías", "lugar": "San Pablo-Santa Justa", "poblacion": 18380.0, "renta": 36216.0, "gasto": 29438.25, "empleos": 101.0, "indice_servicios": 0.225, "turistas": 219833.0, "sevilla": "Si" }, "geometry": { "type": "Point", "coordinates": [ -5.975206504421359, 37.392092270125637, 0.0 ] } },
{ "type": "Feature", "properties": { "id": 232.0, "nombre": "Sevilla Santa Justa", "linea": "Linea C7 Cercanías", "lugar": "San Pablo-Santa Justa", "poblacion": 18380.0, "renta": 36216.0, "gasto": 29438.25, "empleos": 101.0, "indice_servicios": 0.225, "turistas": 219833.0, "sevilla": "Si" }, "geometry": { "type": "Point", "coordinates": [ -5.975206504421359, 37.392092270125637, 0.0 ] } },
{ "type": "Feature", "properties": { "id": 163.0, "nombre": "Padre Pio Palmete", "linea": "Linea C4 Cercanías", "lugar": "Cerro Amate", "poblacion": 14805.0, "renta": 22423.7, "gasto": 29255.03, "empleos": 11.0, "indice_servicios": 0.104, "turistas": 5750.0, "sevilla": "Si" }, "geometry": { "type": "Point", "coordinates": [ -5.939324151535966, 37.370791543532221, 0.0 ] } },
{ "type": "Feature", "properties": { "id": 163.0, "nombre": "Padre Pio Palmete", "linea": "Linea C7 Cercanías", "lugar": "Cerro Amate", "poblacion": 14805.0, "renta": 22423.7, "gasto": 29255.03, "empleos": 11.0, "indice_servicios": 0.104, "turistas": 5750.0, "sevilla": "Si" }, "geometry": { "type": "Point", "coordinates": [ -5.939324151535966, 37.370791543532221, 0.0 ] } },
{ "type": "Feature", "properties": { "id": 98.0, "nombre": "Archivo de Indias", "linea": "Metrocentro", "lugar": "Casco Antiguo", "poblacion": 18048.0, "renta": 40161.4, "gasto": 29246.05, "empleos": 369.0, "indice_servicios": 0.457, "turistas": 1688084.0, "sevilla": "Si" }, "geometry": { "type": "Point", "coordinates": [ -5.993854808272005, 37.384710453397169, 0.0 ] } },
{ "type": "Feature", "properties": { "id": 233.0, "nombre": "Alcosa", "linea": "Linea C6 Cercanías", "lugar": "Alcosa-Torreblanca", "poblacion": 21320.0, "renta": 29277.3, "gasto": 29917.09, "empleos": 14.0, "indice_servicios": 0.104, "turistas": 14554.0, "sevilla": "Si" }, "geometry": { "type": "Point", "coordinates": [ -5.919314788826957, 37.407277452729424, 0.0 ] } },
{ "type": "Feature", "properties": { "id": 234.0, "nombre": "Polígono Industrial Ciudad Blanca", "linea": "Tranvía de Dos Hermanas", "lugar": "Dos Hermanas", "poblacion": 19627.0, "renta": 28733.9, "gasto": 30026.91, "empleos": 20.0, "indice_servicios": 0.075, "turistas": 3489.0, "sevilla": "No" }, "geometry": { "type": "Point", "coordinates": [ -5.922953613026067, 37.263828508809624, 0.0 ] } },
{ "type": "Feature", "properties": { "id": 136.0, "nombre": "Parque Industrial y Servicios del Aljarafe", "linea": "Tranvía del Aljarafe 1", "lugar": "Mairena del Aljarafe", "poblacion": 39305.0, "renta": 34878.2, "gasto": 28734.58, "empleos": 47.0, "indice_servicios": 0.085, "turistas": 11654.0, "sevilla": "No" }, "geometry": { "type": "Point", "coordinates": [ -6.064891129412111, 37.351901585225029, 0.0 ] } },
{ "type": "Feature", "properties": { "id": 134.0, "nombre": "Palomares del Rio", "linea": "Tranvía del Aljarafe 1", "lugar": "Palomares del Río", "poblacion": 7196.0, "renta": 33207.4, "gasto": 29062.13, "empleos": 1.0, "indice_servicios": 0.036, "turistas": 610.0, "sevilla": "No" }, "geometry": { "type": "Point", "coordinates": [ -6.060239643357996, 37.317631341823393, 0.0 ] } },
{ "type": "Feature", "properties": { "id": 139.0, "nombre": "Hospital San Juan de Dios", "linea": "Tranvía del Aljarafe 1", "lugar": "Bormujos", "poblacion": 18273.0, "renta": 36722.0, "gasto": 28598.01, "empleos": 18.0, "indice_servicios": 0.062, "turistas": 1663.0, "sevilla": "No" }, "geometry": { "type": "Point", "coordinates": [ -6.081159504645921, 37.37539508365515, 0.0 ] } },
{ "type": "Feature", "properties": { "id": 140.0, "nombre": "Gines", "linea": "Tranvía del Aljarafe 1", "lugar": "Gines", "poblacion": 11613.0, "renta": 36973.0, "gasto": 28692.25, "empleos": 22.0, "indice_servicios": 0.123, "turistas": 282.0, "sevilla": "No" }, "geometry": { "type": "Point", "coordinates": [ -6.083123331873757, 37.38319475202578, 0.0 ] } },
{ "type": "Feature", "properties": { "id": 137.0, "nombre": "Zaudín", "linea": "Tranvía del Aljarafe 1", "lugar": "Bormujos", "poblacion": 18273.0, "renta": 36722.0, "gasto": 28598.01, "empleos": 18.0, "indice_servicios": 0.062, "turistas": 1663.0, "sevilla": "No" }, "geometry": { "type": "Point", "coordinates": [ -6.068374655803725, 37.361084963889326, 0.0 ] } },
{ "type": "Feature", "properties": { "id": 138.0, "nombre": "Rotonda Puertas Leyva", "linea": "Tranvía del Aljarafe 1", "lugar": "Bormujos", "poblacion": 18273.0, "renta": 36722.0, "gasto": 28598.01, "empleos": 18.0, "indice_servicios": 0.062, "turistas": 1663.0, "sevilla": "No" }, "geometry": { "type": "Point", "coordinates": [ -6.079028908900655, 37.369050425389808, 0.0 ] } },
{ "type": "Feature", "properties": { "id": 141.0, "nombre": "Los Minaretes", "linea": "Tranvía del Aljarafe 1", "lugar": "Gines", "poblacion": 11613.0, "renta": 36973.0, "gasto": 28692.25, "empleos": 22.0, "indice_servicios": 0.123, "turistas": 282.0, "sevilla": "No" }, "geometry": { "type": "Point", "coordinates": [ -6.080228154341983, 37.392956077949385, 0.0 ] } },
{ "type": "Feature", "properties": { "id": 142.0, "nombre": "Valencina de la Concepción", "linea": "Tranvía del Aljarafe 1", "lugar": "Valencina de la Concepción", "poblacion": 9314.0, "renta": 35696.4, "gasto": 28684.41, "empleos": 12.0, "indice_servicios": 0.071, "turistas": 265.0, "sevilla": "No" }, "geometry": { "type": "Point", "coordinates": [ -6.075006376373916, 37.408811744468181, 0.0 ] } },
{ "type": "Feature", "properties": { "id": 193.0, "nombre": "Hospital San Juan de Dios", "linea": "Tranvía del Aljarafe 2", "lugar": "Bormujos", "poblacion": 18273.0, "renta": 36722.0, "gasto": 28598.01, "empleos": 18.0, "indice_servicios": 0.062, "turistas": 1663.0, "sevilla": "No" }, "geometry": { "type": "Point", "coordinates": [ -6.081159399467545, 37.37539508365515, 0.0 ] } },
{ "type": "Feature", "properties": { "id": 194.0, "nombre": "Glorieta del Agua", "linea": "Tranvía del Aljarafe 2", "lugar": "Tomares", "poblacion": 21290.0, "renta": 38550.4, "gasto": 28959.37, "empleos": 23.0, "indice_servicios": 0.119, "turistas": 1920.0, "sevilla": "No" }, "geometry": { "type": "Point", "coordinates": [ -6.047819805928411, 37.372866176816949, 0.0 ] } },
{ "type": "Feature", "properties": { "id": 236.0, "nombre": "Itálica", "linea": "Linea C2 Cercanías", "lugar": "Santiponce", "poblacion": 8442.0, "renta": 25215.4, "gasto": 28867.956, "empleos": 24.0, "indice_servicios": 0.041, "turistas": 3907.0, "sevilla": "No" }, "geometry": { "type": "Point", "coordinates": [ -6.037452928431585, 37.436142561789389, 0.0 ] } },
{ "type": "Feature", "properties": { "id": 203.0, "nombre": "Puebla del Río", "linea": "Línea C2 Cercanías", "lugar": "La Puebla del Río", "poblacion": 26179.0, "renta": 22911.1, "gasto": 28507.45, "empleos": 34.0, "indice_servicios": 0.08, "turistas": 14900.0, "sevilla": "No" }, "geometry": { "type": "Point", "coordinates": [ -6.062729822914866, 37.274435135204328, 0.0 ] } },
{ "type": "Feature", "properties": { "id": 143.0, "nombre": "Camas", "linea": "Tranvía del Aljarafe 1", "lugar": "Camas", "poblacion": 23756.0, "renta": 24119.8, "gasto": 29585.12, "empleos": 38.0, "indice_servicios": 0.094, "turistas": 2471.0, "sevilla": "No" }, "geometry": { "type": "Point", "coordinates": [ -6.027218431160426, 37.392382900893047, 0.0 ] } },
{ "type": "Feature", "properties": { "id": 242.0, "nombre": "Hipercor San Juan", "linea": "Tranvía del Aljarafe 2", "lugar": "San Juan de Aznalfarache", "poblacion": 18273.0, "renta": 22324.8, "gasto": 28031.15, "empleos": 47.0, "indice_servicios": 0.112, "turistas": 3687.0, "sevilla": "No" }, "geometry": { "type": "Point", "coordinates": [ -6.03587731405985, 37.368548932631455, 0.0 ] } },
{ "type": "Feature", "properties": { "id": 241.0, "nombre": "San Juan Parque Empresarial", "linea": "Linea C2 Cercanías", "lugar": "San Juan de Aznalfarache", "poblacion": 18273.0, "renta": 22324.8, "gasto": 28031.15, "empleos": 47.0, "indice_servicios": 0.112, "turistas": 3687.0, "sevilla": "No" }, "geometry": { "type": "Point", "coordinates": [ -6.026093686274687, 37.355298649538994, 0.0 ] } },
{ "type": "Feature", "properties": { "id": 240.0, "nombre": "Glorieta de la Luz", "linea": "Tranvía del Aljarafe 2", "lugar": "Tomares", "poblacion": 21290.0, "renta": 38550.4, "gasto": 28959.37, "empleos": 23.0, "indice_servicios": 0.119, "turistas": 1920.0, "sevilla": "No" }, "geometry": { "type": "Point", "coordinates": [ -6.041267677122457, 37.368805691890373, 0.0 ] } },
{ "type": "Feature", "properties": { "id": 239.0, "nombre": "Mascareta", "linea": "Tranvía del Aljarafe 2", "lugar": "Tomares", "poblacion": 21290.0, "renta": 38550.4, "gasto": 28959.37, "empleos": 23.0, "indice_servicios": 0.119, "turistas": 1920.0, "sevilla": "No" }, "geometry": { "type": "Point", "coordinates": [ -6.045076047638024, 37.370544375488237, 0.0 ] } },
{ "type": "Feature", "properties": { "id": 243.0, "nombre": "Rotonda de las Almenas", "linea": "Tranvía del Aljarafe 2", "lugar": "Tomares", "poblacion": 21290.0, "renta": 38550.4, "gasto": 28959.37, "empleos": 23.0, "indice_servicios": 0.119, "turistas": 1920.0, "sevilla": "No" }, "geometry": { "type": "Point", "coordinates": [ -6.052399566965103, 37.376203190632538, 0.0 ] } },
{ "type": "Feature", "properties": { "id": 244.0, "nombre": "Nueva Sevilla", "linea": "Tranvía del Aljarafe 2", "lugar": "Tomares", "poblacion": 21290.0, "renta": 38550.4, "gasto": 28959.37, "empleos": 23.0, "indice_servicios": 0.119, "turistas": 1920.0, "sevilla": "No" }, "geometry": { "type": "Point", "coordinates": [ -6.059480783327149, 37.377630559502464, 0.0 ] } },
{ "type": "Feature", "properties": { "id": 245.0, "nombre": "Parque Carlos Cano", "linea": "Tranvía del Aljarafe 2", "lugar": "Bormujos", "poblacion": 18273.0, "renta": 36722.0, "gasto": 28598.01, "empleos": 18.0, "indice_servicios": 0.062, "turistas": 1663.0, "sevilla": "No" }, "geometry": { "type": "Point", "coordinates": [ -6.065334682496766, 37.375061834103207, 0.0 ] } },
{ "type": "Feature", "properties": { "id": 246.0, "nombre": "El Aceitunillo", "linea": "Tranvía del Aljarafe 2", "lugar": "Bormujos", "poblacion": 18273.0, "renta": 36722.0, "gasto": 28598.01, "empleos": 18.0, "indice_servicios": 0.062, "turistas": 1663.0, "sevilla": "No" }, "geometry": { "type": "Point", "coordinates": [ -6.068114143320251, 37.377959841133396, 0.0 ] } },
{ "type": "Feature", "properties": { "id": 247.0, "nombre": "Glorieta de Don Quijote", "linea": "Tranvía del Aljarafe 2", "lugar": "Bormujos", "poblacion": 18273.0, "renta": 36722.0, "gasto": 28598.01, "empleos": 18.0, "indice_servicios": 0.062, "turistas": 1663.0, "sevilla": "No" }, "geometry": { "type": "Point", "coordinates": [ -6.076384926775106, 37.374575566296173, 0.0 ] } },
{ "type": "Feature", "properties": { "id": 248.0, "nombre": "Urbanización San Juan Tadeo", "linea": "Tranvía del Aljarafe 2", "lugar": "Bormujos", "poblacion": 18273.0, "renta": 36722.0, "gasto": 28598.01, "empleos": 18.0, "indice_servicios": 0.062, "turistas": 1663.0, "sevilla": "No" }, "geometry": { "type": "Point", "coordinates": [ -6.072379026668481, 37.376382485281418, 0.0 ] } },
{ "type": "Feature", "properties": { "id": 6.0, "nombre": "Blas Infante", "linea": "Linea 1 de Metro", "lugar": "Los Remedios", "poblacion": 21793.0, "renta": 45885.1, "gasto": 29767.67, "empleos": 317.0, "indice_servicios": 0.405, "turistas": 271822.0, "sevilla": "Si" }, "geometry": { "type": "Point", "coordinates": [ -6.010457518664705, 37.373225338186188, 0.0 ] } },
{ "type": "Feature", "properties": { "id": 250.0, "nombre": "Avenida Clara Campoamor", "linea": "Tranvía del Aljarafe 1", "lugar": "Camas", "poblacion": 23756.0, "renta": 24119.8, "gasto": 29585.12, "empleos": 38.0, "indice_servicios": 0.094, "turistas": 2471.0, "sevilla": "No" }, "geometry": { "type": "Point", "coordinates": [ -6.030824695769404, 37.396467423506593, 0.0 ] } },
{ "type": "Feature", "properties": { "id": 249.0, "nombre": "Castilleja de Guzmán", "linea": "Tranvía del Aljarafe 1", "lugar": "Castilleja del Guzmán", "poblacion": 10629.0, "renta": 35696.4, "gasto": 28684.41, "empleos": 28684.41, "indice_servicios": 106.412544, "turistas": 265.0, "sevilla": "No" }, "geometry": { "type": "Point", "coordinates": [ -6.061489275604851, 37.409778946618118, 0.0 ] } },
{ "type": "Feature", "properties": { "id": 252.0, "nombre": "Camas", "linea": "Linea C2 Cercanías", "lugar": "Camas", "poblacion": 23756.0, "renta": 24119.8, "gasto": 29585.12, "empleos": 38.0, "indice_servicios": 0.094, "turistas": 2471.0, "sevilla": "No" }, "geometry": { "type": "Point", "coordinates": [ -6.027218409511581, 37.392382918092963, 0.0 ] } },
{ "type": "Feature", "properties": { "id": 251.0, "nombre": "El Limón", "linea": "Linea C2 Cercanías", "lugar": "Gelves", "poblacion": 8743.0, "renta": 32692.1, "gasto": 29185.08, "empleos": 8.0, "indice_servicios": 0.048, "turistas": 557.0, "sevilla": "No" }, "geometry": { "type": "Point", "coordinates": [ -6.031334464371481, 37.322571643588986, 0.0 ] } },
{ "type": "Feature", "properties": { "id": 254.0, "nombre": "Loyola", "linea": "Tranvía de Dos Hermanas", "lugar": "Dos Hermanas", "poblacion": 37201.0, "renta": 35855.7, "gasto": 28844.18, "empleos": 61.0, "indice_servicios": 0.097, "turistas": 6017.0, "sevilla": "No" }, "geometry": { "type": "Point", "coordinates": [ -5.937514851411946, 37.304361584952758, 0.0 ] } },
{ "type": "Feature", "properties": { "id": 256.0, "nombre": "Fuente del Rey", "linea": "Linea 3 de Metro", "lugar": "Dos Hermanas", "poblacion": 37201.0, "renta": 35855.7, "gasto": 28844.18, "empleos": 61.0, "indice_servicios": 0.097, "turistas": 6017.0, "sevilla": "No" }, "geometry": { "type": "Point", "coordinates": [ -5.976340349177707, 37.310822733013318, 0.0 ] } },
{ "type": "Feature", "properties": { "id": 255.0, "nombre": "La Isla", "linea": "Linea 3 de Metro", "lugar": "Dos Hermanas", "poblacion": 37201.0, "renta": 35855.7, "gasto": 28844.18, "empleos": 61.0, "indice_servicios": 0.097, "turistas": 6017.0, "sevilla": "No" }, "geometry": { "type": "Point", "coordinates": [ -5.987914504548511, 37.287893645258336, 0.0 ] } },
{ "type": "Feature", "properties": { "id": 193.0, "nombre": "Hospital San Juan de Dios", "linea": "Linea 2 de Metro", "lugar": "Bormujos", "poblacion": 18273.0, "renta": 36722.0, "gasto": 28598.01, "empleos": 18.0, "indice_servicios": 0.062, "turistas": 1663.0, "sevilla": "No" }, "geometry": { "type": "Point", "coordinates": [ -6.081159504645921, 37.37539508365515, 0.0 ] } },
{ "type": "Feature", "properties": { "id": 149.0, "nombre": "Avenida de las Civilizaciones", "linea": "Tranvía del Aljarafe 1", "lugar": "Mairena del Aljarafe", "poblacion": 39305.0, "renta": 34878.2, "gasto": 28734.58, "empleos": 47.0, "indice_servicios": 0.085, "turistas": 11654.0, "sevilla": "No" }, "geometry": { "type": "Point", "coordinates": [ -6.054472154811387, 37.34290273833534, 0.0 ] } },
{ "type": "Feature", "properties": { "id": 178.0, "nombre": "Camas Norte", "linea": "Linea C2 Cercanías", "lugar": "Valencina de la Concepción", "poblacion": 9314.0, "renta": 35696.4, "gasto": 28684.41, "empleos": 12.0, "indice_servicios": 0.071, "turistas": 265.0, "sevilla": "No" }, "geometry": { "type": "Point", "coordinates": [ -6.040775170008744, 37.417949129488704, 0.0 ] } },
{ "type": "Feature", "properties": { "id": 253.0, "nombre": "El Almendro", "linea": "Tranvía del Aljarafe 1", "lugar": "Camas", "poblacion": 23756.0, "renta": 24119.8, "gasto": 29585.12, "empleos": 38.0, "indice_servicios": 0.094, "turistas": 2471.0, "sevilla": "No" }, "geometry": { "type": "Point", "coordinates": [ -6.037375436101967, 37.400497197370726, 0.0 ] } },
{ "type": "Feature", "properties": { "id": 196.0, "nombre": "Coria del Río", "linea": "Linea C2 Cercanías", "lugar": "Coria del Río", "poblacion": 26179.0, "renta": 22911.1, "gasto": 28507.45, "empleos": 34.0, "indice_servicios": 0.08, "turistas": 14900.0, "sevilla": "No" }, "geometry": { "type": "Point", "coordinates": [ -6.054268552153006, 37.296306705289169, 0.0 ] } }
]
}
